[
  {
    "name": "LES-5",
    "altitude_deg": 39.01,
    "azimuth_deg": 275.93,
    "distance_km": 35609.62,
    "latitude_deg": -0.88,
    "longitude_deg": 64.02
  },
  {
    "name": "LAGEOS 1",
    "altitude_deg": 6.58,
    "azimuth_deg": 274.54,
    "distance_km": 9716.12,
    "latitude_deg": -0.65,
    "longitude_deg": 55.65
  },
  {
    "name": "COSMOS 2024 (ETALON 2)",
    "altitude_deg": -2.97,
    "azimuth_deg": 152.03,
    "distance_km": 24993.66,
    "latitude_deg": -62.06,
    "longitude_deg": -173.98
  },
  {
    "name": "FLTSATCOM 8 (USA 46)",
    "altitude_deg": 63.11,
    "azimuth_deg": 54.81,
    "distance_km": 36360.64,
    "latitude_deg": 6.48,
    "longitude_deg": 126.32
  },
  {
    "name": "SKYNET 4C",
    "altitude_deg": 4.55,
    "azimuth_deg": 283.35,
    "distance_km": 41174.58,
    "latitude_deg": 11.3,
    "longitude_deg": 32.62
  },
  {
    "name": "TDRS 5",
    "altitude_deg": -1.91,
    "azimuth_deg": 96.77,
    "distance_km": 41857.4,
    "latitude_deg": -7.49,
    "longitude_deg": -168.39
  },
  {
    "name": "USA 75 (DSP 16)",
    "altitude_deg": 31.96,
    "azimuth_deg": 86.45,
    "distance_km": 38738.83,
    "latitude_deg": -1.63,
    "longitude_deg": 158.21
  },
  {
    "name": "UFO 2 (USA 95)",
    "altitude_deg": 0.64,
    "azimuth_deg": 278.74,
    "distance_km": 41613.4,
    "latitude_deg": 7.45,
    "longitude_deg": 28.01
  },
  {
    "name": "UFO 4 (USA 108)",
    "altitude_deg": 16.55,
    "azimuth_deg": 85.67,
    "distance_km": 39889.9,
    "latitude_deg": 1.0,
    "longitude_deg": 172.38
  },
  {
    "name": "TDRS 7",
    "altitude_deg": 59.73,
    "azimuth_deg": 317.51,
    "distance_km": 36488.46,
    "latitude_deg": 12.23,
    "longitude_deg": 90.04
  },
  {
    "name": "INMARSAT 3-F2",
    "altitude_deg": 71.75,
    "azimuth_deg": 7.23,
    "distance_km": 36109.51,
    "latitude_deg": 8.53,
    "longitude_deg": 109.55
  },
  {
    "name": "NAVSTAR 43 (USA 132)",
    "altitude_deg": 25.19,
    "azimuth_deg": 22.06,
    "distance_km": 22947.41,
    "latitude_deg": 40.79,
    "longitude_deg": 130.64
  },
  {
    "name": "ABS-6",
    "altitude_deg": 30.78,
    "azimuth_deg": 84.54,
    "distance_km": 38535.87,
    "latitude_deg": -0.0,
    "longitude_deg": 159.02
  },
  {
    "name": "XMM-NEWTON",
    "altitude_deg": 33.35,
    "azimuth_deg": 162.73,
    "distance_km": 95153.03,
    "latitude_deg": -56.52,
    "longitude_deg": 133.24
  },
  {
    "name": "ASIASTAR",
    "altitude_deg": 73.06,
    "azimuth_deg": 348.41,
    "distance_km": 36001.62,
    "latitude_deg": 7.24,
    "longitude_deg": 104.71
  },
  {
    "name": "IMAGE",
    "altitude_deg": 46.3,
    "azimuth_deg": 12.93,
    "distance_km": 47389.11,
    "latitude_deg": 30.92,
    "longitude_deg": 117.02
  },
  {
    "name": "TDRS 8",
    "altitude_deg": 55.75,
    "azimuth_deg": 307.85,
    "distance_km": 36722.79,
    "latitude_deg": 11.21,
    "longitude_deg": 84.35
  },
  {
    "name": "NSS-11",
    "altitude_deg": 12.75,
    "azimuth_deg": 85.94,
    "distance_km": 40289.11,
    "latitude_deg": 1.27,
    "longitude_deg": 176.04
  },
  {
    "name": "USA 153",
    "altitude_deg": 52.8,
    "azimuth_deg": 57.84,
    "distance_km": 36902.84,
    "latitude_deg": 10.25,
    "longitude_deg": 134.69
  },
  {
    "name": "BSAT-2A",
    "altitude_deg": 49.48,
    "azimuth_deg": 292.12,
    "distance_km": 37432.76,
    "latitude_deg": 6.65,
    "longitude_deg": 75.33
  },
  {
    "name": "OMNI-M1",
    "altitude_deg": 66.45,
    "azimuth_deg": 51.29,
    "distance_km": 10959.85,
    "latitude_deg": 2.54,
    "longitude_deg": 119.21
  },
  {
    "name": "TIMED",
    "altitude_deg": 0.67,
    "azimuth_deg": 130.05,
    "distance_km": 2736.03,
    "latitude_deg": -21.26,
    "longitude_deg": 126.4
  },
  {
    "name": "INTELSAT 906 (IS-906)",
    "altitude_deg": 39.3,
    "azimuth_deg": 277.61,
    "distance_km": 37826.22,
    "latitude_deg": 0.29,
    "longitude_deg": 64.11
  },
  {
    "name": "LATINSAT B",
    "altitude_deg": -4.53,
    "azimuth_deg": 192.81,
    "distance_km": 3384.43,
    "latitude_deg": -35.09,
    "longitude_deg": 100.09
  },
  {
    "name": "USA 169 (MILSTAR-2 4)",
    "altitude_deg": 34.58,
    "azimuth_deg": 72.66,
    "distance_km": 38446.99,
    "latitude_deg": 8.12,
    "longitude_deg": 153.65
  },
  {
    "name": "ASIASAT 4",
    "altitude_deg": 42.27,
    "azimuth_deg": 76.04,
    "distance_km": 37597.71,
    "latitude_deg": 3.9,
    "longitude_deg": 147.54
  },
  {
    "name": "THURAYA-2",
    "altitude_deg": 17.09,
    "azimuth_deg": 277.49,
    "distance_km": 39830.74,
    "latitude_deg": 3.76,
    "longitude_deg": 43.77
  },
  {
    "name": "OPTUS C1",
    "altitude_deg": 32.83,
    "azimuth_deg": 76.07,
    "distance_km": 38344.03,
    "latitude_deg": 6.05,
    "longitude_deg": 155.86
  },
  {
    "name": "GALAXY 23 (G-23)",
    "altitude_deg": 22.28,
    "azimuth_deg": 273.1,
    "distance_km": 39707.45,
    "latitude_deg": -0.8,
    "longitude_deg": 47.99
  },
  {
    "name": "USA 170",
    "altitude_deg": -1.88,
    "azimuth_deg": 268.96,
    "distance_km": 41889.6,
    "latitude_deg": -1.84,
    "longitude_deg": 24.25
  },
  {
    "name": "CHUANGXIN 1 (CX-1)",
    "altitude_deg": -4.68,
    "azimuth_deg": 191.5,
    "distance_km": 3726.93,
    "latitude_deg": -37.72,
    "longitude_deg": 100.06
  },
  {
    "name": "YAMAL 202",
    "altitude_deg": 24.91,
    "azimuth_deg": 79.03,
    "distance_km": 39061.96,
    "latitude_deg": 5.39,
    "longitude_deg": 163.59
  },
  {
    "name": "UFO 11 (USA 174)",
    "altitude_deg": 49.19,
    "azimuth_deg": 292.94,
    "distance_km": 37122.88,
    "latitude_deg": 7.16,
    "longitude_deg": 75.32
  },
  {
    "name": "NAVSTAR 53 (USA 175)",
    "altitude_deg": 14.37,
    "azimuth_deg": 13.09,
    "distance_km": 24980.01,
    "latitude_deg": 53.42,
    "longitude_deg": 127.29
  },
  {
    "name": "ABS-4 (MOBISAT-1)",
    "altitude_deg": 35.9,
    "azimuth_deg": 276.59,
    "distance_km": 38097.6,
    "latitude_deg": 0.1,
    "longitude_deg": 60.95
  },
  {
    "name": "COSMOS 2414",
    "altitude_deg": 7.21,
    "azimuth_deg": 285.86,
    "distance_km": 2823.73,
    "latitude_deg": -0.35,
    "longitude_deg": 85.91
  },
  {
    "name": "XTAR-EUR",
    "altitude_deg": 2.88,
    "azimuth_deg": 269.29,
    "distance_km": 41354.44,
    "latitude_deg": -2.07,
    "longitude_deg": 29.01
  },
  {
    "name": "INMARSAT 4-F1",
    "altitude_deg": 10.39,
    "azimuth_deg": 85.21,
    "distance_km": 40538.19,
    "latitude_deg": 2.27,
    "longitude_deg": 178.2
  },
  {
    "name": "THAICOM 4",
    "altitude_deg": 73.85,
    "azimuth_deg": 60.2,
    "distance_km": 35992.41,
    "latitude_deg": 0.03,
    "longitude_deg": 119.49
  },
  {
    "name": "SYRACUSE 3A",
    "altitude_deg": -4.2,
    "azimuth_deg": 267.93,
    "distance_km": 42151.23,
    "latitude_deg": -2.59,
    "longitude_deg": 21.8
  },
  {
    "name": "INMARSAT 4-F2",
    "altitude_deg": 46.41,
    "azimuth_deg": 73.82,
    "distance_km": 37305.31,
    "latitude_deg": 4.23,
    "longitude_deg": 143.59
  },
  {
    "name": "METEOSAT-9 (MSG-2)",
    "altitude_deg": 19.54,
    "azimuth_deg": 274.4,
    "distance_km": 39599.1,
    "latitude_deg": 0.67,
    "longitude_deg": 45.65
  },
  {
    "name": "EUTELSAT 174A",
    "altitude_deg": 14.46,
    "azimuth_deg": 83.53,
    "distance_km": 40102.04,
    "latitude_deg": 3.24,
    "longitude_deg": 174.07
  },
  {
    "name": "JCSAT-5A",
    "altitude_deg": 60.26,
    "azimuth_deg": 74.62,
    "distance_km": 36499.32,
    "latitude_deg": 0.27,
    "longitude_deg": 132.07
  },
  {
    "name": "EUTELSAT HOTBIRD 13B",
    "altitude_deg": 6.8,
    "azimuth_deg": 271.37,
    "distance_km": 40928.4,
    "latitude_deg": -0.51,
    "longitude_deg": 33.09
  },
  {
    "name": "JCSAT-3A",
    "altitude_deg": 64.83,
    "azimuth_deg": 72.09,
    "distance_km": 36292.14,
    "latitude_deg": 0.01,
    "longitude_deg": 127.99
  },
  {
    "name": "KOREASAT 5 (MUGUNGWHA 5)",
    "altitude_deg": 79.06,
    "azimuth_deg": 35.92,
    "distance_km": 35879.3,
    "latitude_deg": 0.66,
    "longitude_deg": 113.04
  },
  {
    "name": "OPTUS D1",
    "altitude_deg": 37.88,
    "azimuth_deg": 79.93,
    "distance_km": 37933.2,
    "latitude_deg": 2.23,
    "longitude_deg": 152.02
  },
  {
    "name": "BADR-4",
    "altitude_deg": -0.05,
    "azimuth_deg": 270.22,
    "distance_km": 41688.84,
    "latitude_deg": -0.81,
    "longitude_deg": 26.21
  },
  {
    "name": "NAVSTAR 59 (USA 192)",
    "altitude_deg": 31.86,
    "azimuth_deg": 190.26,
    "distance_km": 22869.16,
    "latitude_deg": -52.32,
    "longitude_deg": 95.42
  },
  {
    "name": "THEMIS A",
    "altitude_deg": 39.83,
    "azimuth_deg": 271.7,
    "distance_km": 66342.97,
    "latitude_deg": -3.55,
    "longitude_deg": 61.32
  },
  {
    "name": "SKYNET 5A",
    "altitude_deg": 71.67,
    "azimuth_deg": 306.59,
    "distance_km": 36049.16,
    "latitude_deg": 2.5,
    "longitude_deg": 95.12
  },
  {
    "name": "THEMIS D",
    "altitude_deg": 40.02,
    "azimuth_deg": 275.39,
    "distance_km": 61872.84,
    "latitude_deg": -0.97,
    "longitude_deg": 62.1
  },
  {
    "name": "THEMIS E",
    "altitude_deg": 44.3,
    "azimuth_deg": 277.16,
    "distance_km": 66394.03,
    "latitude_deg": -0.36,
    "longitude_deg": 65.98
  },
  {
    "name": "ZHONGXING-6B",
    "altitude_deg": 78.4,
    "azimuth_deg": 35.92,
    "distance_km": 35887.61,
    "latitude_deg": 1.11,
    "longitude_deg": 113.37
  },
  {
    "name": "OPTUS D2",
    "altitude_deg": 35.05,
    "azimuth_deg": 81.98,
    "distance_km": 38312.25,
    "latitude_deg": 1.27,
    "longitude_deg": 154.86
  },
  {
    "name": "INTELSAT 11 (IS-11)",
    "altitude_deg": 46.93,
    "azimuth_deg": 279.53,
    "distance_km": 37627.63,
    "latitude_deg": 0.21,
    "longitude_deg": 71.01
  },
  {
    "name": "NAVSTAR 60 (USA 196)",
    "altitude_deg": 45.29,
    "azimuth_deg": 346.24,
    "distance_km": 21343.34,
    "latitude_deg": 26.97,
    "longitude_deg": 98.83
  },
  {
    "name": "SKYNET 5B",
    "altitude_deg": -0.92,
    "azimuth_deg": 268.25,
    "distance_km": 41783.21,
    "latitude_deg": -2.65,
    "longitude_deg": 25.12
  },
  {
    "name": "NAVSTAR 61 (USA 199)",
    "altitude_deg": 45.82,
    "azimuth_deg": 308.63,
    "distance_km": 21519.98,
    "latitude_deg": 14.64,
    "longitude_deg": 80.38
  },
  {
    "name": "COSMOS 2434 [GLONASS-M]",
    "altitude_deg": 2.83,
    "azimuth_deg": 99.23,
    "distance_km": 24385.84,
    "latitude_deg": -10.83,
    "longitude_deg": -178.76
  },
  {
    "name": "THURAYA-3",
    "altitude_deg": 72.02,
    "azimuth_deg": 323.12,
    "distance_km": 36040.15,
    "latitude_deg": 5.39,
    "longitude_deg": 98.45
  },
  {
    "name": "VINASAT-1",
    "altitude_deg": 60.49,
    "azimuth_deg": 75.17,
    "distance_km": 36487.67,
    "latitude_deg": -0.01,
    "longitude_deg": 131.94
  },
  {
    "name": "ZHONGXING-9",
    "altitude_deg": 70.22,
    "azimuth_deg": 293.55,
    "distance_km": 36092.29,
    "latitude_deg": 0.0,
    "longitude_deg": 92.19
  },
  {
    "name": "TURKSAT 3A",
    "altitude_deg": 15.78,
    "azimuth_deg": 273.09,
    "distance_km": 39970.94,
    "latitude_deg": -0.01,
    "longitude_deg": 41.94
  },
  {
    "name": "SUPERBIRD-C2",
    "altitude_deg": 46.86,
    "azimuth_deg": 78.28,
    "distance_km": 37279.94,
    "latitude_deg": 1.51,
    "longitude_deg": 143.92
  },
  {
    "name": "IBEX",
    "altitude_deg": 6.96,
    "azimuth_deg": 106.34,
    "distance_km": 241642.53,
    "latitude_deg": -17.09,
    "longitude_deg": -169.16
  },
  {
    "name": "NSS-9",
    "altitude_deg": 5.69,
    "azimuth_deg": 87.79,
    "distance_km": 41048.97,
    "latitude_deg": 0.42,
    "longitude_deg": -176.91
  },
  {
    "name": "WGS F2 (USA 204)",
    "altitude_deg": 32.2,
    "azimuth_deg": 275.73,
    "distance_km": 38418.07,
    "latitude_deg": 0.0,
    "longitude_deg": 57.5
  },
  {
    "name": "SES-7 (PROTOSTAR 2)",
    "altitude_deg": 81.81,
    "azimuth_deg": 5.47,
    "distance_km": 35840.41,
    "latitude_deg": 0.03,
    "longitude_deg": 108.26
  },
  {
    "name": "MEASAT-3A",
    "altitude_deg": 29.7,
    "azimuth_deg": 84.72,
    "distance_km": 38631.97,
    "latitude_deg": 0.01,
    "longitude_deg": 160.03
  },
  {
    "name": "ASIASAT 5",
    "altitude_deg": 78.35,
    "azimuth_deg": 314.07,
    "distance_km": 35892.98,
    "latitude_deg": 0.03,
    "longitude_deg": 100.5
  },
  {
    "name": "NAVSTAR 64 (USA 206)",
    "altitude_deg": 9.23,
    "azimuth_deg": 24.96,
    "distance_km": 24636.01,
    "latitude_deg": 51.45,
    "longitude_deg": 146.1
  },
  {
    "name": "JCSAT-12 (JCSAT-RA)",
    "altitude_deg": 60.36,
    "azimuth_deg": 75.12,
    "distance_km": 36499.76,
    "latitude_deg": 0.04,
    "longitude_deg": 132.04
  },
  {
    "name": "OPTUS D3",
    "altitude_deg": 33.82,
    "azimuth_deg": 83.55,
    "distance_km": 38281.62,
    "latitude_deg": 0.3,
    "longitude_deg": 156.15
  },
  {
    "name": "COMSATBW-1",
    "altitude_deg": 38.13,
    "azimuth_deg": 276.9,
    "distance_km": 37921.94,
    "latitude_deg": -0.02,
    "longitude_deg": 62.98
  },
  {
    "name": "NSS-12",
    "altitude_deg": 31.64,
    "azimuth_deg": 275.68,
    "distance_km": 38454.89,
    "latitude_deg": 0.04,
    "longitude_deg": 56.99
  },
  {
    "name": "EUTELSAT 36B",
    "altitude_deg": 24.64,
    "azimuth_deg": 274.47,
    "distance_km": 39095.11,
    "latitude_deg": 0.04,
    "longitude_deg": 50.41
  },
  {
    "name": "INTELSAT 15 (IS-15)",
    "altitude_deg": 62.54,
    "azimuth_deg": 286.21,
    "distance_km": 36393.75,
    "latitude_deg": 0.02,
    "longitude_deg": 85.12
  },
  {
    "name": "WGS F3 (USA 211)",
    "altitude_deg": 63.45,
    "azimuth_deg": 287.0,
    "distance_km": 36362.13,
    "latitude_deg": 0.07,
    "longitude_deg": 85.97
  },
  {
    "name": "BEIDOU-2 G1",
    "altitude_deg": 50.02,
    "azimuth_deg": 73.32,
    "distance_km": 37083.37,
    "latitude_deg": 3.56,
    "longitude_deg": 140.44
  },
  {
    "name": "EWS-G2 (GOES 15)",
    "altitude_deg": 36.47,
    "azimuth_deg": 276.49,
    "distance_km": 38068.04,
    "latitude_deg": -0.06,
    "longitude_deg": 61.44
  },
  {
    "name": "YAOGAN-9 01B",
    "altitude_deg": -4.42,
    "azimuth_deg": 292.2,
    "distance_km": 3635.41,
    "latitude_deg": 5.14,
    "longitude_deg": 79.24
  },
  {
    "name": "YAOGAN-9 01C",
    "altitude_deg": -4.36,
    "azimuth_deg": 306.38,
    "distance_km": 3607.42,
    "latitude_deg": 11.38,
    "longitude_deg": 82.97
  },
  {
    "name": "ASTRA 3B",
    "altitude_deg": -2.81,
    "azimuth_deg": 270.2,
    "distance_km": 41991.29,
    "latitude_deg": -0.5,
    "longitude_deg": 23.46
  },
  {
    "name": "NAVSTAR 65 (USA 213)",
    "altitude_deg": 24.57,
    "azimuth_deg": 225.59,
    "distance_km": 23594.01,
    "latitude_deg": -38.86,
    "longitude_deg": 60.55
  },
  {
    "name": "BEIDOU-2 G3",
    "altitude_deg": 55.63,
    "azimuth_deg": 286.72,
    "distance_km": 36722.28,
    "latitude_deg": 2.07,
    "longitude_deg": 79.47
  },
  {
    "name": "BADR-5",
    "altitude_deg": -0.43,
    "azimuth_deg": 270.93,
    "distance_km": 41730.75,
    "latitude_deg": -0.07,
    "longitude_deg": 25.93
  },
  {
    "name": "COMS 1",
    "altitude_deg": 63.09,
    "azimuth_deg": 63.31,
    "distance_km": 36372.87,
    "latitude_deg": 3.65,
    "longitude_deg": 128.06
  },
  {
    "name": "ARABSAT-5A",
    "altitude_deg": 4.05,
    "azimuth_deg": 271.54,
    "distance_km": 41231.0,
    "latitude_deg": -0.01,
    "longitude_deg": 30.42
  },
  {
    "name": "TISAT 1",
    "altitude_deg": 7.04,
    "azimuth_deg": 45.49,
    "distance_km": 1946.14,
    "latitude_deg": 4.64,
    "longitude_deg": 119.16
  },
  {
    "name": "BEIDOU-2 IGSO-1",
    "altitude_deg": 55.81,
    "azimuth_deg": 154.99,
    "distance_km": 36781.95,
    "latitude_deg": -33.07,
    "longitude_deg": 121.9
  },
  {
    "name": "AEHF-1 (USA 214)",
    "altitude_deg": 4.08,
    "azimuth_deg": 268.18,
    "distance_km": 41225.81,
    "latitude_deg": -3.28,
    "longitude_deg": 30.07
  },
  {
    "name": "BSAT-3B",
    "altitude_deg": 81.54,
    "azimuth_deg": 17.91,
    "distance_km": 35837.68,
    "latitude_deg": -0.05,
    "longitude_deg": 109.81
  },
  {
    "name": "BEIDOU-2 G4",
    "altitude_deg": 29.26,
    "azimuth_deg": 81.29,
    "distance_km": 38664.63,
    "latitude_deg": 2.78,
    "longitude_deg": 159.97
  },
  {
    "name": "INTELSAT 17 (IS-17)",
    "altitude_deg": 41.38,
    "azimuth_deg": 277.68,
    "distance_km": 37670.18,
    "latitude_deg": -0.0,
    "longitude_deg": 65.97
  },
  {
    "name": "BEIDOU-2 IGSO-2",
    "altitude_deg": 71.43,
    "azimuth_deg": 209.53,
    "distance_km": 35869.68,
    "latitude_deg": -20.54,
    "longitude_deg": 99.36
  },
  {
    "name": "KOREASAT 6",
    "altitude_deg": 29.83,
    "azimuth_deg": 84.7,
    "distance_km": 38619.9,
    "latitude_deg": 0.0,
    "longitude_deg": 159.9
  },
  {
    "name": "BEIDOU-2 IGSO-3",
    "altitude_deg": 14.03,
    "azimuth_deg": 351.39,
    "distance_km": 40175.87,
    "latitude_deg": 59.48,
    "longitude_deg": 91.81
  },
  {
    "name": "YAHSAT 1A",
    "altitude_deg": 26.82,
    "azimuth_deg": 274.76,
    "distance_km": 38895.52,
    "latitude_deg": -0.01,
    "longitude_deg": 52.47
  },
  {
    "name": "SBIRS GEO-1 (USA 230)",
    "altitude_deg": 25.89,
    "azimuth_deg": 275.85,
    "distance_km": 38983.8,
    "latitude_deg": 1.01,
    "longitude_deg": 51.74
  },
  {
    "name": "GSAT-8",
    "altitude_deg": 29.65,
    "azimuth_deg": 274.83,
    "distance_km": 38655.15,
    "latitude_deg": -0.34,
    "longitude_deg": 55.07
  },
  {
    "name": "ST-2",
    "altitude_deg": 65.69,
    "azimuth_deg": 288.58,
    "distance_km": 36266.85,
    "latitude_deg": -0.01,
    "longitude_deg": 87.99
  },
  {
    "name": "ZHONGXING-10",
    "altitude_deg": 63.58,
    "azimuth_deg": 287.09,
    "distance_km": 36391.83,
    "latitude_deg": 0.06,
    "longitude_deg": 86.08
  },
  {
    "name": "GLOBALSTAR M088",
    "altitude_deg": 1.97,
    "azimuth_deg": 188.93,
    "distance_km": 4274.44,
    "latitude_deg": -39.75,
    "longitude_deg": 101.26
  },
  {
    "name": "KAZSAT-2",
    "altitude_deg": 64.06,
    "azimuth_deg": 287.27,
    "distance_km": 36334.36,
    "latitude_deg": -0.0,
    "longitude_deg": 86.5
  },
  {
    "name": "BEIDOU-2 IGSO-4",
    "altitude_deg": 48.45,
    "azimuth_deg": 174.62,
    "distance_km": 37001.29,
    "latitude_deg": -42.49,
    "longitude_deg": 111.86
  },
  {
    "name": "BSAT-3C (JCSAT-110R)",
    "altitude_deg": 81.39,
    "azimuth_deg": 18.77,
    "distance_km": 35846.62,
    "latitude_deg": 0.03,
    "longitude_deg": 109.95
  },
  {
    "name": "PAKSAT-1R",
    "altitude_deg": 11.66,
    "azimuth_deg": 272.51,
    "distance_km": 40403.63,
    "latitude_deg": -0.03,
    "longitude_deg": 37.93
  },
  {
    "name": "INTELSAT 18 (IS-18)",
    "altitude_deg": 8.85,
    "azimuth_deg": 87.81,
    "distance_km": 40704.97,
    "latitude_deg": 0.02,
    "longitude_deg": -179.98
  },
  {
    "name": "GSAT0101 (GALILEO-PFM)",
    "altitude_deg": 24.38,
    "azimuth_deg": 100.44,
    "distance_km": 26397.86,
    "latitude_deg": -12.49,
    "longitude_deg": 162.49
  },
  {
    "name": "COSMOS 2476 [GLONASS-M]",
    "altitude_deg": 22.07,
    "azimuth_deg": 351.32,
    "distance_km": 22464.83,
    "latitude_deg": 46.93,
    "longitude_deg": 97.23
  },
  {
    "name": "ASIASAT 7",
    "altitude_deg": 81.51,
    "azimuth_deg": 343.01,
    "distance_km": 35838.63,
    "latitude_deg": 0.01,
    "longitude_deg": 105.5
  },
  {
    "name": "BEIDOU-2 IGSO-5",
    "altitude_deg": 69.17,
    "azimuth_deg": 251.9,
    "distance_km": 35719.0,
    "latitude_deg": -12.03,
    "longitude_deg": 90.4
  },
  {
    "name": "LUCH-5A",
    "altitude_deg": 20.58,
    "azimuth_deg": 77.27,
    "distance_km": 39481.71,
    "latitude_deg": 7.72,
    "longitude_deg": 167.27
  },
  {
    "name": "SSOT",
    "altitude_deg": -2.62,
    "azimuth_deg": 305.91,
    "distance_km": 3194.0,
    "latitude_deg": 9.21,
    "longitude_deg": 85.65
  },
  {
    "name": "NIGCOMSAT 1R",
    "altitude_deg": 16.35,
    "azimuth_deg": 273.12,
    "distance_km": 39920.85,
    "latitude_deg": -0.06,
    "longitude_deg": 42.48
  },
  {
    "name": "WGS F4 (USA 233)",
    "altitude_deg": 66.13,
    "azimuth_deg": 289.04,
    "distance_km": 36254.24,
    "latitude_deg": 0.01,
    "longitude_deg": 88.4
  },
  {
    "name": "BEIDOU-2 G5",
    "altitude_deg": 33.54,
    "azimuth_deg": 276.22,
    "distance_km": 38310.6,
    "latitude_deg": 0.17,
    "longitude_deg": 58.77
  },
  {
    "name": "INTELSAT 22 (IS-22)",
    "altitude_deg": 48.09,
    "azimuth_deg": 279.56,
    "distance_km": 37199.8,
    "latitude_deg": 0.01,
    "longitude_deg": 72.07
  },
  {
    "name": "APSTAR-7",
    "altitude_deg": 52.94,
    "azimuth_deg": 281.22,
    "distance_km": 36892.11,
    "latitude_deg": -0.0,
    "longitude_deg": 76.45
  },
  {
    "name": "YAHSAT 1B",
    "altitude_deg": 21.63,
    "azimuth_deg": 273.92,
    "distance_km": 39390.93,
    "latitude_deg": -0.03,
    "longitude_deg": 47.55
  },
  {
    "name": "BEIDOU-2 M3",
    "altitude_deg": 14.0,
    "azimuth_deg": 333.7,
    "distance_km": 25712.61,
    "latitude_deg": 47.81,
    "longitude_deg": 71.57
  },
  {
    "name": "BEIDOU-2 M4",
    "altitude_deg": 62.25,
    "azimuth_deg": 2.22,
    "distance_km": 22108.06,
    "latitude_deg": 14.75,
    "longitude_deg": 108.45
  },
  {
    "name": "JCSAT-13",
    "altitude_deg": 69.14,
    "azimuth_deg": 67.73,
    "distance_km": 36130.08,
    "latitude_deg": 0.03,
    "longitude_deg": 124.01
  },
  {
    "name": "VINASAT-2",
    "altitude_deg": 60.57,
    "azimuth_deg": 75.06,
    "distance_km": 36483.21,
    "latitude_deg": 0.02,
    "longitude_deg": 131.86
  },
  {
    "name": "ZHONGXING-2A",
    "altitude_deg": 76.13,
    "azimuth_deg": 307.15,
    "distance_km": 35940.65,
    "latitude_deg": 0.29,
    "longitude_deg": 98.23
  },
  {
    "name": "INTELSAT 19 (IS-19)",
    "altitude_deg": 23.32,
    "azimuth_deg": 85.74,
    "distance_km": 39220.06,
    "latitude_deg": 0.04,
    "longitude_deg": 166.04
  },
  {
    "name": "INTELSAT 20 (IS-20)",
    "altitude_deg": 44.14,
    "azimuth_deg": 278.39,
    "distance_km": 37472.98,
    "latitude_deg": -0.0,
    "longitude_deg": 68.48
  },
  {
    "name": "BEIDOU-2 M6",
    "altitude_deg": 25.91,
    "azimuth_deg": 271.54,
    "distance_km": 24488.72,
    "latitude_deg": -3.01,
    "longitude_deg": 55.31
  },
  {
    "name": "ASTRA 2F",
    "altitude_deg": 1.79,
    "azimuth_deg": 271.32,
    "distance_km": 41490.42,
    "latitude_deg": 0.04,
    "longitude_deg": 28.17
  },
  {
    "name": "GSAT-10",
    "altitude_deg": 60.17,
    "azimuth_deg": 284.69,
    "distance_km": 36477.49,
    "latitude_deg": 0.01,
    "longitude_deg": 82.98
  },
  {
    "name": "NAVSTAR 67 (USA 239)",
    "altitude_deg": 60.03,
    "azimuth_deg": 157.88,
    "distance_km": 20898.78,
    "latitude_deg": -28.14,
    "longitude_deg": 117.24
  },
  {
    "name": "BEIDOU-2 G6",
    "altitude_deg": 60.87,
    "azimuth_deg": 288.68,
    "distance_km": 36461.58,
    "latitude_deg": 1.44,
    "longitude_deg": 84.08
  },
  {
    "name": "YAMAL 300K",
    "altitude_deg": 5.87,
    "azimuth_deg": 88.17,
    "distance_km": 41031.62,
    "latitude_deg": 0.03,
    "longitude_deg": -177.04
  },
  {
    "name": "EUTELSAT 21B",
    "altitude_deg": -4.74,
    "azimuth_deg": 270.51,
    "distance_km": 42209.12,
    "latitude_deg": 0.04,
    "longitude_deg": 21.57
  },
  {
    "name": "ZHONGXING-12",
    "altitude_deg": 65.12,
    "azimuth_deg": 288.16,
    "distance_km": 36282.63,
    "latitude_deg": 0.01,
    "longitude_deg": 87.48
  },
  {
    "name": "PLEIADES 1B",
    "altitude_deg": -1.5,
    "azimuth_deg": 210.55,
    "distance_km": 3255.56,
    "latitude_deg": -30.07,
    "longitude_deg": 91.96
  },
  {
    "name": "EUTELSAT 70B",
    "altitude_deg": 46.31,
    "azimuth_deg": 279.11,
    "distance_km": 37311.41,
    "latitude_deg": 0.07,
    "longitude_deg": 70.47
  },
  {
    "name": "YAMAL 402",
    "altitude_deg": 29.39,
    "azimuth_deg": 275.04,
    "distance_km": 38657.84,
    "latitude_deg": -0.14,
    "longitude_deg": 54.86
  },
  {
    "name": "SKYNET 5D",
    "altitude_deg": 27.06,
    "azimuth_deg": 274.89,
    "distance_km": 38873.4,
    "latitude_deg": 0.06,
    "longitude_deg": 52.7
  },
  {
    "name": "TDRS 11",
    "altitude_deg": 3.16,
    "azimuth_deg": 88.37,
    "distance_km": 41339.09,
    "latitude_deg": 0.18,
    "longitude_deg": -174.35
  },
  {
    "name": "GLOBALSTAR M097",
    "altitude_deg": 35.13,
    "azimuth_deg": 13.79,
    "distance_km": 2116.03,
    "latitude_deg": 5.64,
    "longitude_deg": 110.65
  },
  {
    "name": "AZERSPACE 1",
    "altitude_deg": 19.96,
    "azimuth_deg": 273.71,
    "distance_km": 39559.32,
    "latitude_deg": 0.01,
    "longitude_deg": 45.96
  },
  {
    "name": "ZHONGXING-11",
    "altitude_deg": 76.03,
    "azimuth_deg": 305.22,
    "distance_km": 35939.9,
    "latitude_deg": 0.02,
    "longitude_deg": 97.92
  },
  {
    "name": "O3B FM4",
    "altitude_deg": 8.74,
    "azimuth_deg": 274.83,
    "distance_km": 12026.33,
    "latitude_deg": 0.05,
    "longitude_deg": 52.51
  },
  {
    "name": "IRNSS-1A",
    "altitude_deg": 29.17,
    "azimuth_deg": 277.41,
    "distance_km": 38765.1,
    "latitude_deg": 1.77,
    "longitude_deg": 54.95
  },
  {
    "name": "MUOS-2",
    "altitude_deg": 5.74,
    "azimuth_deg": 86.23,
    "distance_km": 40834.08,
    "latitude_deg": 1.92,
    "longitude_deg": -177.2
  },
  {
    "name": "ALPHASAT",
    "altitude_deg": -1.74,
    "azimuth_deg": 272.63,
    "distance_km": 41879.22,
    "latitude_deg": 1.76,
    "longitude_deg": 24.82
  },
  {
    "name": "INSAT-3D",
    "altitude_deg": 62.77,
    "azimuth_deg": 71.07,
    "distance_km": 36385.4,
    "latitude_deg": 0.97,
    "longitude_deg": 129.54
  },
  {
    "name": "ES'HAIL 1",
    "altitude_deg": -0.9,
    "azimuth_deg": 270.97,
    "distance_km": 41779.16,
    "latitude_deg": 0.02,
    "longitude_deg": 25.45
  },
  {
    "name": "GSAT-7",
    "altitude_deg": 50.18,
    "azimuth_deg": 280.22,
    "distance_km": 37079.11,
    "latitude_deg": -0.0,
    "longitude_deg": 73.96
  },
  {
    "name": "AMOS-4",
    "altitude_deg": 40.34,
    "azimuth_deg": 277.43,
    "distance_km": 37749.18,
    "latitude_deg": -0.0,
    "longitude_deg": 65.01
  },
  {
    "name": "ASTRA 2E",
    "altitude_deg": 2.06,
    "azimuth_deg": 271.33,
    "distance_km": 41452.7,
    "latitude_deg": 0.02,
    "longitude_deg": 28.44
  },
  {
    "name": "RADUGA-1M 3",
    "altitude_deg": 9.05,
    "azimuth_deg": 269.87,
    "distance_km": 40680.51,
    "latitude_deg": -2.21,
    "longitude_deg": 35.11
  },
  {
    "name": "TRITON-1",
    "altitude_deg": 20.64,
    "azimuth_deg": 133.13,
    "distance_km": 1558.7,
    "latitude_deg": -14.96,
    "longitude_deg": 116.55
  },
  {
    "name": "SES-8",
    "altitude_deg": 73.15,
    "azimuth_deg": 298.21,
    "distance_km": 36007.62,
    "latitude_deg": -0.0,
    "longitude_deg": 95.0
  },
  {
    "name": "TACSAT 6",
    "altitude_deg": -3.0,
    "azimuth_deg": 41.41,
    "distance_km": 2940.65,
    "latitude_deg": 12.18,
    "longitude_deg": 124.37
  },
  {
    "name": "INMARSAT 5-F1",
    "altitude_deg": 37.71,
    "azimuth_deg": 276.84,
    "distance_km": 37958.88,
    "latitude_deg": -0.0,
    "longitude_deg": 62.6
  },
  {
    "name": "EXPRESS-AM5",
    "altitude_deg": 51.51,
    "azimuth_deg": 79.24,
    "distance_km": 36982.43,
    "latitude_deg": 0.04,
    "longitude_deg": 140.03
  },
  {
    "name": "GSAT-14",
    "altitude_deg": 50.21,
    "azimuth_deg": 280.26,
    "distance_km": 37063.56,
    "latitude_deg": 0.02,
    "longitude_deg": 73.98
  },
  {
    "name": "THAICOM 6",
    "altitude_deg": 55.19,
    "azimuth_deg": 282.14,
    "distance_km": 36757.75,
    "latitude_deg": -0.01,
    "longitude_deg": 78.48
  },
  {
    "name": "ABS-2",
    "altitude_deg": 51.2,
    "azimuth_deg": 280.59,
    "distance_km": 36991.55,
    "latitude_deg": 0.01,
    "longitude_deg": 74.88
  },
  {
    "name": "ATHENA-FIDUS",
    "altitude_deg": 11.51,
    "azimuth_deg": 272.48,
    "distance_km": 40424.54,
    "latitude_deg": -0.04,
    "longitude_deg": 37.78
  },
  {
    "name": "TURKSAT 4A",
    "altitude_deg": 15.83,
    "azimuth_deg": 273.16,
    "distance_km": 39980.43,
    "latitude_deg": 0.05,
    "longitude_deg": 41.99
  },
  {
    "name": "EXPRESS-AT1",
    "altitude_deg": 30.61,
    "azimuth_deg": 275.43,
    "distance_km": 38553.76,
    "latitude_deg": -0.0,
    "longitude_deg": 56.02
  },
  {
    "name": "EXPRESS-AT2",
    "altitude_deg": 51.72,
    "azimuth_deg": 79.27,
    "distance_km": 36971.35,
    "latitude_deg": -0.02,
    "longitude_deg": 139.86
  },
  {
    "name": "ASTRA 5B",
    "altitude_deg": -2.88,
    "azimuth_deg": 270.77,
    "distance_km": 42005.64,
    "latitude_deg": 0.07,
    "longitude_deg": 23.46
  },
  {
    "name": "COSMOS 2492 [GLONASS-M]",
    "altitude_deg": 28.99,
    "azimuth_deg": 357.26,
    "distance_km": 21818.76,
    "latitude_deg": 41.47,
    "longitude_deg": 104.87
  },
  {
    "name": "IRNSS-1B",
    "altitude_deg": 29.26,
    "azimuth_deg": 271.96,
    "distance_km": 38581.96,
    "latitude_deg": -2.57,
    "longitude_deg": 54.43
  },
  {
    "name": "LUCH-5V",
    "altitude_deg": 71.08,
    "azimuth_deg": 306.04,
    "distance_km": 36073.89,
    "latitude_deg": 2.68,
    "longitude_deg": 94.62
  },
  {
    "name": "KAZSAT-3",
    "altitude_deg": 33.27,
    "azimuth_deg": 275.95,
    "distance_km": 38327.14,
    "latitude_deg": 0.01,
    "longitude_deg": 58.5
  },
  {
    "name": "NAVSTAR 70 (USA 251)",
    "altitude_deg": 9.26,
    "azimuth_deg": 124.45,
    "distance_km": 24793.16,
    "latitude_deg": -34.36,
    "longitude_deg": 174.44
  },
  {
    "name": "UNIFORM 1",
    "altitude_deg": 14.83,
    "azimuth_deg": 43.43,
    "distance_km": 1612.58,
    "latitude_deg": 2.59,
    "longitude_deg": 116.46
  },
  {
    "name": "GONETS-M 8",
    "altitude_deg": 3.55,
    "azimuth_deg": 41.73,
    "distance_km": 4238.23,
    "latitude_deg": 17.38,
    "longitude_deg": 129.59
  },
  {
    "name": "GONETS-M 10",
    "altitude_deg": -1.52,
    "azimuth_deg": 164.71,
    "distance_km": 4830.14,
    "latitude_deg": -43.01,
    "longitude_deg": 120.31
  },
  {
    "name": "O3B FM3",
    "altitude_deg": 24.95,
    "azimuth_deg": 82.13,
    "distance_km": 10542.58,
    "latitude_deg": 0.02,
    "longitude_deg": 148.57
  },
  {
    "name": "O3B FM8",
    "altitude_deg": 72.63,
    "azimuth_deg": 314.79,
    "distance_km": 8225.36,
    "latitude_deg": 0.05,
    "longitude_deg": 100.67
  },
  {
    "name": "ASIASAT 8 (AMOS-7)",
    "altitude_deg": 81.43,
    "azimuth_deg": 341.47,
    "distance_km": 35840.31,
    "latitude_deg": 0.01,
    "longitude_deg": 105.29
  },
  {
    "name": "BRITE-PL2 (HEWELIUSZ)",
    "altitude_deg": 0.74,
    "azimuth_deg": 62.81,
    "distance_km": 2733.25,
    "latitude_deg": 3.92,
    "longitude_deg": 128.06
  },
  {
    "name": "GSAT0202 (GALILEO 6)",
    "altitude_deg": 22.77,
    "azimuth_deg": 143.27,
    "distance_km": 23581.54,
    "latitude_deg": -45.89,
    "longitude_deg": 151.95
  },
  {
    "name": "ASIASAT 6",
    "altitude_deg": 73.42,
    "azimuth_deg": 61.13,
    "distance_km": 36007.99,
    "latitude_deg": 0.03,
    "longitude_deg": 119.93
  },
  {
    "name": "OPTUS 10",
    "altitude_deg": 34.02,
    "azimuth_deg": 83.93,
    "distance_km": 38252.14,
    "latitude_deg": -0.0,
    "longitude_deg": 156.01
  },
  {
    "name": "MEASAT-3B",
    "altitude_deg": 69.48,
    "azimuth_deg": 292.72,
    "distance_km": 36123.3,
    "latitude_deg": 0.04,
    "longitude_deg": 91.52
  },
  {
    "name": "LUCH (OLYMP-K 1)",
    "altitude_deg": 31.13,
    "azimuth_deg": 275.19,
    "distance_km": 38458.23,
    "latitude_deg": -0.26,
    "longitude_deg": 56.47
  },
  {
    "name": "HIMAWARI-8",
    "altitude_deg": 50.85,
    "azimuth_deg": 79.59,
    "distance_km": 37019.14,
    "latitude_deg": -0.02,
    "longitude_deg": 140.64
  },
  {
    "name": "IRNSS-1C",
    "altitude_deg": 60.02,
    "azimuth_deg": 285.51,
    "distance_km": 36428.59,
    "latitude_deg": 0.38,
    "longitude_deg": 82.96
  },
  {
    "name": "EXPRESS-AM6",
    "altitude_deg": 27.37,
    "azimuth_deg": 274.87,
    "distance_km": 38855.18,
    "latitude_deg": 0.0,
    "longitude_deg": 52.98
  },
  {
    "name": "ASNARO",
    "altitude_deg": 12.19,
    "azimuth_deg": 220.16,
    "distance_km": 1581.8,
    "latitude_deg": -16.76,
    "longitude_deg": 98.91
  },
  {
    "name": "GSAT-16",
    "altitude_deg": 29.56,
    "azimuth_deg": 275.22,
    "distance_km": 38624.27,
    "latitude_deg": -0.02,
    "longitude_deg": 55.04
  },
  {
    "name": "YAMAL 401",
    "altitude_deg": 67.8,
    "azimuth_deg": 290.71,
    "distance_km": 36190.81,
    "latitude_deg": 0.02,
    "longitude_deg": 89.94
  },
  {
    "name": "O3B FM10",
    "altitude_deg": 8.74,
    "azimuth_deg": 274.84,
    "distance_km": 12022.92,
    "latitude_deg": 0.06,
    "longitude_deg": 52.52
  },
  {
    "name": "ASTRA 2G",
    "altitude_deg": 1.77,
    "azimuth_deg": 271.28,
    "distance_km": 41469.76,
    "latitude_deg": 0.01,
    "longitude_deg": 28.14
  },
  {
    "name": "FENGYUN 2G",
    "altitude_deg": 74.99,
    "azimuth_deg": 320.97,
    "distance_km": 35977.34,
    "latitude_deg": 3.06,
    "longitude_deg": 99.59
  },
  {
    "name": "EXPRESS-AM7",
    "altitude_deg": 13.75,
    "azimuth_deg": 272.8,
    "distance_km": 40188.21,
    "latitude_deg": -0.02,
    "longitude_deg": 39.97
  },
  {
    "name": "GSAT0204 (GALILEO 8)",
    "altitude_deg": 34.98,
    "azimuth_deg": 75.95,
    "distance_km": 25471.62,
    "latitude_deg": 4.88,
    "longitude_deg": 150.96
  },
  {
    "name": "BEIDOU-3S IGSO-1S",
    "altitude_deg": 69.97,
    "azimuth_deg": 323.35,
    "distance_km": 35955.78,
    "latitude_deg": 6.83,
    "longitude_deg": 97.45
  },
  {
    "name": "TURKMENALEM52E/MONACOSAT",
    "altitude_deg": 26.32,
    "azimuth_deg": 274.68,
    "distance_km": 38942.37,
    "latitude_deg": -0.01,
    "longitude_deg": 51.99
  },
  {
    "name": "WGS F7 (USA 263)",
    "altitude_deg": 13.99,
    "azimuth_deg": 87.11,
    "distance_km": 40163.38,
    "latitude_deg": 0.03,
    "longitude_deg": 174.99
  },
  {
    "name": "BEIDOU-3S M1S",
    "altitude_deg": 38.83,
    "azimuth_deg": 132.2,
    "distance_km": 23471.34,
    "latitude_deg": -31.87,
    "longitude_deg": 142.43
  },
  {
    "name": "GSAT-6",
    "altitude_deg": 59.55,
    "azimuth_deg": 284.86,
    "distance_km": 36532.13,
    "latitude_deg": 0.23,
    "longitude_deg": 82.49
  },
  {
    "name": "INMARSAT 5-F3",
    "altitude_deg": 9.3,
    "azimuth_deg": 87.73,
    "distance_km": 40661.6,
    "latitude_deg": 0.04,
    "longitude_deg": 179.58
  },
  {
    "name": "MUOS-4",
    "altitude_deg": 50.93,
    "azimuth_deg": 286.03,
    "distance_km": 36860.89,
    "latitude_deg": 2.97,
    "longitude_deg": 75.44
  },
  {
    "name": "GSAT0205 (GALILEO 9)",
    "altitude_deg": 1.2,
    "azimuth_deg": 123.71,
    "distance_km": 28773.74,
    "latitude_deg": -34.35,
    "longitude_deg": -174.23
  },
  {
    "name": "GSAT0206 (GALILEO 10)",
    "altitude_deg": 4.94,
    "azimuth_deg": 271.16,
    "distance_km": 28366.1,
    "latitude_deg": -0.94,
    "longitude_deg": 34.94
  },
  {
    "name": "TJS-1",
    "altitude_deg": 35.11,
    "azimuth_deg": 83.6,
    "distance_km": 38180.33,
    "latitude_deg": 0.08,
    "longitude_deg": 155.0
  },
  {
    "name": "COSMOS 2508",
    "altitude_deg": 9.35,
    "azimuth_deg": 258.72,
    "distance_km": 3717.95,
    "latitude_deg": -11.37,
    "longitude_deg": 79.88
  },
  {
    "name": "BEIDOU-3S IGSO-2S",
    "altitude_deg": 59.81,
    "azimuth_deg": 236.31,
    "distance_km": 36291.49,
    "latitude_deg": -20.37,
    "longitude_deg": 84.88
  },
  {
    "name": "SKY MUSTER 1 (NBN1A)",
    "altitude_deg": 51.28,
    "azimuth_deg": 79.34,
    "distance_km": 36991.31,
    "latitude_deg": 0.03,
    "longitude_deg": 140.24
  },
  {
    "name": "APSTAR-9",
    "altitude_deg": 49.31,
    "azimuth_deg": 80.01,
    "distance_km": 37111.62,
    "latitude_deg": 0.04,
    "longitude_deg": 142.02
  },
  {
    "name": "TURKSAT 4B",
    "altitude_deg": 24.15,
    "azimuth_deg": 274.34,
    "distance_km": 39146.94,
    "latitude_deg": 0.0,
    "longitude_deg": 49.95
  },
  {
    "name": "ZHONGXING-2C",
    "altitude_deg": 80.45,
    "azimuth_deg": 327.66,
    "distance_km": 35860.12,
    "latitude_deg": -0.02,
    "longitude_deg": 103.27
  },
  {
    "name": "GSAT-15",
    "altitude_deg": 71.62,
    "azimuth_deg": 295.49,
    "distance_km": 36048.14,
    "latitude_deg": -0.02,
    "longitude_deg": 93.52
  },
  {
    "name": "BADR-7 (ARABSAT-6B)",
    "altitude_deg": -0.39,
    "azimuth_deg": 270.99,
    "distance_km": 41742.91,
    "latitude_deg": -0.02,
    "longitude_deg": 25.96
  },
  {
    "name": "LAOSAT 1",
    "altitude_deg": 64.23,
    "azimuth_deg": 72.54,
    "distance_km": 36323.77,
    "latitude_deg": 0.02,
    "longitude_deg": 128.54
  },
  {
    "name": "COSMOS 2513",
    "altitude_deg": 57.15,
    "azimuth_deg": 283.05,
    "distance_km": 36650.93,
    "latitude_deg": -0.0,
    "longitude_deg": 80.24
  },
  {
    "name": "GSAT0209 (GALILEO 12)",
    "altitude_deg": 1.46,
    "azimuth_deg": 29.93,
    "distance_km": 28732.2,
    "latitude_deg": 53.78,
    "longitude_deg": 162.56
  },
  {
    "name": "GSAT0208 (GALILEO 11)",
    "altitude_deg": 17.43,
    "azimuth_deg": 222.53,
    "distance_km": 27056.92,
    "latitude_deg": -44.21,
    "longitude_deg": 52.32
  },
  {
    "name": "EXPRESS-AMU1",
    "altitude_deg": 9.75,
    "azimuth_deg": 272.26,
    "distance_km": 40612.85,
    "latitude_deg": -0.02,
    "longitude_deg": 36.06
  },
  {
    "name": "GAOFEN-4",
    "altitude_deg": 81.55,
    "azimuth_deg": 344.28,
    "distance_km": 35839.01,
    "latitude_deg": 0.01,
    "longitude_deg": 105.66
  },
  {
    "name": "BELINTERSAT-1",
    "altitude_deg": 25.72,
    "azimuth_deg": 274.64,
    "distance_km": 39000.64,
    "latitude_deg": 0.03,
    "longitude_deg": 51.44
  },
  {
    "name": "IRNSS-1E",
    "altitude_deg": 48.67,
    "azimuth_deg": 359.82,
    "distance_km": 37194.76,
    "latitude_deg": 28.73,
    "longitude_deg": 107.48
  },
  {
    "name": "NAVSTAR 76 (USA 266)",
    "altitude_deg": 3.05,
    "azimuth_deg": 221.61,
    "distance_km": 25306.59,
    "latitude_deg": -48.2,
    "longitude_deg": 35.44
  },
  {
    "name": "COSMOS 2514 [GLONASS-M]",
    "altitude_deg": 61.77,
    "azimuth_deg": 56.53,
    "distance_km": 19681.28,
    "latitude_deg": 5.08,
    "longitude_deg": 125.42
  },
  {
    "name": "SES-9",
    "altitude_deg": 81.82,
    "azimuth_deg": 5.75,
    "distance_km": 35831.06,
    "latitude_deg": 0.02,
    "longitude_deg": 108.29
  },
  {
    "name": "IRNSS-1F",
    "altitude_deg": 6.78,
    "azimuth_deg": 267.94,
    "distance_km": 40979.41,
    "latitude_deg": -3.8,
    "longitude_deg": 32.68
  },
  {
    "name": "BEIDOU-2 IGSO-6",
    "altitude_deg": 16.09,
    "azimuth_deg": 342.77,
    "distance_km": 40152.44,
    "latitude_deg": 54.5,
    "longitude_deg": 79.94
  },
  {
    "name": "IRNSS-1G",
    "altitude_deg": 62.07,
    "azimuth_deg": 66.59,
    "distance_km": 36396.63,
    "latitude_deg": 2.86,
    "longitude_deg": 129.42
  },
  {
    "name": "JCSAT-2B",
    "altitude_deg": 36.18,
    "azimuth_deg": 83.43,
    "distance_km": 38079.97,
    "latitude_deg": 0.04,
    "longitude_deg": 154.01
  },
  {
    "name": "GSAT0211 (GALILEO 14)",
    "altitude_deg": 30.87,
    "azimuth_deg": 225.84,
    "distance_km": 25823.34,
    "latitude_deg": -36.72,
    "longitude_deg": 65.56
  },
  {
    "name": "THAICOM 8",
    "altitude_deg": 55.23,
    "azimuth_deg": 282.31,
    "distance_km": 36757.07,
    "latitude_deg": 0.06,
    "longitude_deg": 78.54
  },
  {
    "name": "ZIYUAN 3-2 (ZY 3-2)",
    "altitude_deg": -3.7,
    "azimuth_deg": 207.28,
    "distance_km": 3060.79,
    "latitude_deg": -30.02,
    "longitude_deg": 94.05
  },
  {
    "name": "BEIDOU-2 G7",
    "altitude_deg": 79.43,
    "azimuth_deg": 19.13,
    "distance_km": 35851.46,
    "latitude_deg": 1.6,
    "longitude_deg": 110.53
  },
  {
    "name": "ABS-2A (MONGOLSAT-1)",
    "altitude_deg": 51.03,
    "azimuth_deg": 280.54,
    "distance_km": 37005.6,
    "latitude_deg": 0.01,
    "longitude_deg": 74.73
  },
  {
    "name": "BRISAT",
    "altitude_deg": 39.99,
    "azimuth_deg": 82.59,
    "distance_km": 37773.58,
    "latitude_deg": 0.04,
    "longitude_deg": 150.5
  },
  {
    "name": "SJ 16-02",
    "altitude_deg": -3.51,
    "azimuth_deg": 109.03,
    "distance_km": 3244.02,
    "latitude_deg": -14.92,
    "longitude_deg": 134.6
  },
  {
    "name": "TIANTONG-1 1",
    "altitude_deg": 76.07,
    "azimuth_deg": 328.29,
    "distance_km": 35937.27,
    "latitude_deg": 3.21,
    "longitude_deg": 101.4
  },
  {
    "name": "JCSAT-16",
    "altitude_deg": 47.17,
    "azimuth_deg": 80.68,
    "distance_km": 37257.18,
    "latitude_deg": 0.04,
    "longitude_deg": 143.96
  },
  {
    "name": "INTELSAT 36 (IS-36)",
    "altitude_deg": 44.18,
    "azimuth_deg": 278.43,
    "distance_km": 37470.32,
    "latitude_deg": 0.02,
    "longitude_deg": 68.52
  },
  {
    "name": "INSAT-3DR",
    "altitude_deg": 50.21,
    "azimuth_deg": 280.23,
    "distance_km": 37108.67,
    "latitude_deg": -0.0,
    "longitude_deg": 73.98
  },
  {
    "name": "GSAT-18",
    "altitude_deg": 50.25,
    "azimuth_deg": 280.27,
    "distance_km": 37045.13,
    "latitude_deg": 0.01,
    "longitude_deg": 74.02
  },
  {
    "name": "SKY MUSTER 2 (NBN1B)",
    "altitude_deg": 46.23,
    "azimuth_deg": 80.98,
    "distance_km": 37320.51,
    "latitude_deg": 0.03,
    "longitude_deg": 144.82
  },
  {
    "name": "HIMAWARI-9",
    "altitude_deg": 50.7,
    "azimuth_deg": 79.61,
    "distance_km": 37028.32,
    "latitude_deg": -0.0,
    "longitude_deg": 140.77
  },
  {
    "name": "SHIJIAN-17 (SJ-17)",
    "altitude_deg": 6.19,
    "azimuth_deg": 83.75,
    "distance_km": 41004.47,
    "latitude_deg": 4.24,
    "longitude_deg": -177.92
  },
  {
    "name": "GSAT0212 (GALILEO 16)",
    "altitude_deg": 63.17,
    "azimuth_deg": 258.63,
    "distance_km": 23761.45,
    "latitude_deg": -10.54,
    "longitude_deg": 86.41
  },
  {
    "name": "GSAT0214 (GALILEO 18)",
    "altitude_deg": 48.62,
    "azimuth_deg": 9.49,
    "distance_km": 24504.35,
    "latitude_deg": 25.85,
    "longitude_deg": 113.35
  },
  {
    "name": "TIANLIAN 1-04",
    "altitude_deg": 11.9,
    "azimuth_deg": 87.35,
    "distance_km": 40206.36,
    "latitude_deg": 0.06,
    "longitude_deg": 176.99
  },
  {
    "name": "WGS F8 (USA 272)",
    "altitude_deg": 40.8,
    "azimuth_deg": 82.39,
    "distance_km": 37720.01,
    "latitude_deg": 0.04,
    "longitude_deg": 149.77
  },
  {
    "name": "FENGYUN 4A",
    "altitude_deg": 68.91,
    "azimuth_deg": 63.55,
    "distance_km": 36159.72,
    "latitude_deg": 1.28,
    "longitude_deg": 123.64
  },
  {
    "name": "JCSAT-110A (JCSAT-15)",
    "altitude_deg": 81.35,
    "azimuth_deg": 19.68,
    "distance_km": 35844.23,
    "latitude_deg": 0.03,
    "longitude_deg": 110.07
  },
  {
    "name": "TJS-2",
    "altitude_deg": 41.93,
    "azimuth_deg": 277.81,
    "distance_km": 37632.01,
    "latitude_deg": -0.01,
    "longitude_deg": 66.46
  },
  {
    "name": "SBIRS GEO-4 (USA 273)",
    "altitude_deg": 32.55,
    "azimuth_deg": 277.34,
    "distance_km": 38469.07,
    "latitude_deg": 1.18,
    "longitude_deg": 58.01
  },
  {
    "name": "TELKOM 3S",
    "altitude_deg": 75.32,
    "azimuth_deg": 56.69,
    "distance_km": 35953.52,
    "latitude_deg": 0.04,
    "longitude_deg": 118.0
  },
  {
    "name": "CHINASAT 16 (SJ-13)",
    "altitude_deg": 81.17,
    "azimuth_deg": 22.68,
    "distance_km": 35849.62,
    "latitude_deg": 0.03,
    "longitude_deg": 110.48
  },
  {
    "name": "KOREASAT 7",
    "altitude_deg": 77.31,
    "azimuth_deg": 50.33,
    "distance_km": 35913.82,
    "latitude_deg": 0.04,
    "longitude_deg": 115.88
  },
  {
    "name": "GSAT-9",
    "altitude_deg": 75.45,
    "azimuth_deg": 303.4,
    "distance_km": 35950.42,
    "latitude_deg": -0.01,
    "longitude_deg": 97.29
  },
  {
    "name": "INMARSAT 5-F4",
    "altitude_deg": 31.12,
    "azimuth_deg": 275.53,
    "distance_km": 38511.57,
    "latitude_deg": 0.0,
    "longitude_deg": 56.5
  },
  {
    "name": "QZS-2 (MICHIBIKI-2)",
    "altitude_deg": 37.08,
    "azimuth_deg": 141.96,
    "distance_km": 34807.46,
    "latitude_deg": -39.91,
    "longitude_deg": 142.49
  },
  {
    "name": "EUTELSAT 172B",
    "altitude_deg": 17.07,
    "azimuth_deg": 86.69,
    "distance_km": 39848.97,
    "latitude_deg": 0.02,
    "longitude_deg": 172.01
  },
  {
    "name": "GSAT-19",
    "altitude_deg": 21.92,
    "azimuth_deg": 273.98,
    "distance_km": 39352.78,
    "latitude_deg": -0.01,
    "longitude_deg": 47.83
  },
  {
    "name": "IRIDIUM 118",
    "altitude_deg": 29.52,
    "azimuth_deg": 11.3,
    "distance_km": 1376.86,
    "latitude_deg": 2.61,
    "longitude_deg": 109.48
  },
  {
    "name": "HELLAS-SAT 3",
    "altitude_deg": 12.76,
    "azimuth_deg": 272.69,
    "distance_km": 40281.82,
    "latitude_deg": -0.0,
    "longitude_deg": 39.01
  },
  {
    "name": "GSAT-17",
    "altitude_deg": 71.6,
    "azimuth_deg": 295.58,
    "distance_km": 36071.81,
    "latitude_deg": 0.01,
    "longitude_deg": 93.51
  },
  {
    "name": "COSMOS 2520",
    "altitude_deg": 18.96,
    "azimuth_deg": 273.53,
    "distance_km": 39658.49,
    "latitude_deg": -0.03,
    "longitude_deg": 44.99
  },
  {
    "name": "QZS-3 (MICHIBIKI-3)",
    "altitude_deg": 65.87,
    "azimuth_deg": 71.34,
    "distance_km": 36254.23,
    "latitude_deg": -0.04,
    "longitude_deg": 127.05
  },
  {
    "name": "COSMOS 2522 [GLONASS-M]",
    "altitude_deg": 20.54,
    "azimuth_deg": 151.78,
    "distance_km": 22556.39,
    "latitude_deg": -52.39,
    "longitude_deg": 147.49
  },
  {
    "name": "ASIASAT 9",
    "altitude_deg": 71.17,
    "azimuth_deg": 64.98,
    "distance_km": 36068.31,
    "latitude_deg": 0.04,
    "longitude_deg": 122.1
  },
  {
    "name": "YAOGAN-30 02A",
    "altitude_deg": 28.68,
    "azimuth_deg": 166.34,
    "distance_km": 1051.44,
    "latitude_deg": -14.36,
    "longitude_deg": 109.45
  },
  {
    "name": "BSAT-4A",
    "altitude_deg": 81.4,
    "azimuth_deg": 18.14,
    "distance_km": 35835.96,
    "latitude_deg": 0.05,
    "longitude_deg": 109.87
  },
  {
    "name": "QZS-4 (MICHIBIKI-4)",
    "altitude_deg": 50.65,
    "azimuth_deg": 52.8,
    "distance_km": 37924.35,
    "latitude_deg": 13.65,
    "longitude_deg": 134.85
  },
  {
    "name": "KOREASAT 5A",
    "altitude_deg": 79.55,
    "azimuth_deg": 38.94,
    "distance_km": 35869.0,
    "latitude_deg": 0.03,
    "longitude_deg": 113.16
  },
  {
    "name": "GSAT0216 (GALILEO 20)",
    "altitude_deg": 28.02,
    "azimuth_deg": 164.7,
    "distance_km": 26058.45,
    "latitude_deg": -55.1,
    "longitude_deg": 128.59
  },
  {
    "name": "IRIDIUM 138",
    "altitude_deg": -3.79,
    "azimuth_deg": 257.23,
    "distance_km": 3704.47,
    "latitude_deg": -12.51,
    "longitude_deg": 76.56
  },
  {
    "name": "LEMUR-2-KADI",
    "altitude_deg": -2.34,
    "azimuth_deg": 156.76,
    "distance_km": 2734.64,
    "latitude_deg": -28.45,
    "longitude_deg": 117.92
  },
  {
    "name": "BEIDOU-3 M3",
    "altitude_deg": 22.87,
    "azimuth_deg": 358.08,
    "distance_km": 24788.94,
    "latitude_deg": 48.08,
    "longitude_deg": 105.25
  },
  {
    "name": "O3B FM15",
    "altitude_deg": -0.8,
    "azimuth_deg": 86.74,
    "distance_km": 13044.11,
    "latitude_deg": -0.01,
    "longitude_deg": 171.99
  },
  {
    "name": "O3B FM16",
    "altitude_deg": 39.05,
    "azimuth_deg": 281.73,
    "distance_km": 9544.69,
    "latitude_deg": 0.05,
    "longitude_deg": 77.42
  },
  {
    "name": "SUPERBIRD-B3",
    "altitude_deg": 27.61,
    "azimuth_deg": 85.11,
    "distance_km": 38821.61,
    "latitude_deg": -0.01,
    "longitude_deg": 161.99
  },
  {
    "name": "IRNSS-1I",
    "altitude_deg": 31.25,
    "azimuth_deg": 270.56,
    "distance_km": 38582.55,
    "latitude_deg": -3.86,
    "longitude_deg": 56.1
  },
  {
    "name": "USA 283",
    "altitude_deg": 58.11,
    "azimuth_deg": 76.35,
    "distance_km": 36614.14,
    "latitude_deg": 0.05,
    "longitude_deg": 134.08
  },
  {
    "name": "COSMOS 2526",
    "altitude_deg": 64.76,
    "azimuth_deg": 72.06,
    "distance_km": 36309.19,
    "latitude_deg": 0.04,
    "longitude_deg": 128.05
  },
  {
    "name": "TESS",
    "altitude_deg": 12.59,
    "azimuth_deg": 272.23,
    "distance_km": 177278.84,
    "latitude_deg": 0.41,
    "longitude_deg": 32.35
  },
  {
    "name": "USA 285",
    "altitude_deg": 11.27,
    "azimuth_deg": 81.68,
    "distance_km": 39898.41,
    "latitude_deg": 5.41,
    "longitude_deg": 176.74
  },
  {
    "name": "APSTAR-6C",
    "altitude_deg": 58.21,
    "azimuth_deg": 76.37,
    "distance_km": 36608.33,
    "latitude_deg": 0.02,
    "longitude_deg": 133.99
  },
  {
    "name": "BANGABANDHUSAT-1",
    "altitude_deg": 74.28,
    "azimuth_deg": 59.39,
    "distance_km": 35977.85,
    "latitude_deg": 0.01,
    "longitude_deg": 119.08
  },
  {
    "name": "LUOJIA-1 01",
    "altitude_deg": 19.16,
    "azimuth_deg": 321.55,
    "distance_km": 1458.61,
    "latitude_deg": 2.08,
    "longitude_deg": 100.56
  },
  {
    "name": "SES-12",
    "altitude_deg": 73.12,
    "azimuth_deg": 298.29,
    "distance_km": 36021.43,
    "latitude_deg": 0.03,
    "longitude_deg": 94.98
  },
  {
    "name": "FENGYUN 2H",
    "altitude_deg": 55.94,
    "azimuth_deg": 283.51,
    "distance_km": 36729.87,
    "latitude_deg": 0.48,
    "longitude_deg": 79.28
  },
  {
    "name": "COSMOS 2527 [GLONASS-M]",
    "altitude_deg": 21.88,
    "azimuth_deg": 240.07,
    "distance_km": 22445.63,
    "latitude_deg": -28.31,
    "longitude_deg": 54.17
  },
  {
    "name": "BEIDOU-2 IGSO-7",
    "altitude_deg": 56.0,
    "azimuth_deg": 148.46,
    "distance_km": 36680.3,
    "latitude_deg": -31.15,
    "longitude_deg": 124.91
  },
  {
    "name": "GSAT0219 (GALILEO 23)",
    "altitude_deg": 37.66,
    "azimuth_deg": 43.17,
    "distance_km": 25267.46,
    "latitude_deg": 23.66,
    "longitude_deg": 137.91
  },
  {
    "name": "BEIDOU-3 M6",
    "altitude_deg": 24.36,
    "azimuth_deg": 203.65,
    "distance_km": 24676.91,
    "latitude_deg": -53.49,
    "longitude_deg": 74.75
  },
  {
    "name": "TELKOM 4 (MERAH PUTIH)",
    "altitude_deg": 81.83,
    "azimuth_deg": 3.28,
    "distance_km": 35835.06,
    "latitude_deg": 0.03,
    "longitude_deg": 108.0
  },
  {
    "name": "BEIDOU-3 M12",
    "altitude_deg": 36.6,
    "azimuth_deg": 148.08,
    "distance_km": 23634.25,
    "latitude_deg": -41.41,
    "longitude_deg": 136.22
  },
  {
    "name": "TELSTAR 18V",
    "altitude_deg": 53.74,
    "azimuth_deg": 78.45,
    "distance_km": 36842.83,
    "latitude_deg": -0.0,
    "longitude_deg": 138.02
  },
  {
    "name": "BEIDOU-3 M14",
    "altitude_deg": 12.03,
    "azimuth_deg": 249.3,
    "distance_km": 25864.74,
    "latitude_deg": -21.66,
    "longitude_deg": 41.75
  },
  {
    "name": "AZERSPACE 2 (IS-38)",
    "altitude_deg": 19.06,
    "azimuth_deg": 273.56,
    "distance_km": 39645.87,
    "latitude_deg": -0.01,
    "longitude_deg": 45.09
  },
  {
    "name": "HORIZONS-3E",
    "altitude_deg": 20.23,
    "azimuth_deg": 86.25,
    "distance_km": 39533.66,
    "latitude_deg": 0.01,
    "longitude_deg": 168.98
  },
  {
    "name": "BEIDOU-3 M16",
    "altitude_deg": 32.42,
    "azimuth_deg": 135.32,
    "distance_km": 23986.25,
    "latitude_deg": -36.51,
    "longitude_deg": 146.94
  },
  {
    "name": "BEIDOU-3 M15",
    "altitude_deg": 37.62,
    "azimuth_deg": 336.26,
    "distance_km": 23545.38,
    "latitude_deg": 31.25,
    "longitude_deg": 89.26
  },
  {
    "name": "BEIDOU-3 G1",
    "altitude_deg": 51.05,
    "azimuth_deg": 75.48,
    "distance_km": 37001.15,
    "latitude_deg": 2.14,
    "longitude_deg": 139.91
  },
  {
    "name": "COSMOS 2529 [GLONASS-M]",
    "altitude_deg": 13.28,
    "azimuth_deg": 203.42,
    "distance_km": 23256.22,
    "latitude_deg": -59.83,
    "longitude_deg": 63.06
  },
  {
    "name": "GSAT-29",
    "altitude_deg": 29.56,
    "azimuth_deg": 275.23,
    "distance_km": 38642.71,
    "latitude_deg": -0.01,
    "longitude_deg": 55.03
  },
  {
    "name": "ES'HAIL 2",
    "altitude_deg": -0.55,
    "azimuth_deg": 271.0,
    "distance_km": 41739.81,
    "latitude_deg": 0.01,
    "longitude_deg": 25.81
  },
  {
    "name": "HYSIS",
    "altitude_deg": 1.41,
    "azimuth_deg": 289.49,
    "distance_km": 2765.96,
    "latitude_deg": 1.2,
    "longitude_deg": 85.78
  },
  {
    "name": "GEO-KOMPSAT-2A",
    "altitude_deg": 64.51,
    "azimuth_deg": 72.25,
    "distance_km": 36308.67,
    "latitude_deg": 0.04,
    "longitude_deg": 128.27
  },
  {
    "name": "GSAT-11",
    "altitude_deg": 50.2,
    "azimuth_deg": 280.25,
    "distance_km": 37032.54,
    "latitude_deg": 0.01,
    "longitude_deg": 73.98
  },
  {
    "name": "GSAT-7A",
    "altitude_deg": 37.92,
    "azimuth_deg": 276.91,
    "distance_km": 37935.15,
    "latitude_deg": 0.02,
    "longitude_deg": 62.79
  },
  {
    "name": "COSMOS 2533",
    "altitude_deg": 45.81,
    "azimuth_deg": 278.83,
    "distance_km": 37354.6,
    "latitude_deg": -0.01,
    "longitude_deg": 69.99
  },
  {
    "name": "TJS-3",
    "altitude_deg": 33.82,
    "azimuth_deg": 275.66,
    "distance_km": 38272.55,
    "latitude_deg": -0.28,
    "longitude_deg": 58.96
  },
  {
    "name": "KANOPUS-V 5",
    "altitude_deg": 2.27,
    "azimuth_deg": 358.11,
    "distance_km": 2324.11,
    "latitude_deg": 12.95,
    "longitude_deg": 106.94
  },
  {
    "name": "KANOPUS-V 6",
    "altitude_deg": -2.5,
    "azimuth_deg": 8.71,
    "distance_km": 2777.09,
    "latitude_deg": 16.87,
    "longitude_deg": 111.27
  },
  {
    "name": "HONGYAN 1 (CHONGQING)",
    "altitude_deg": -2.47,
    "azimuth_deg": 341.53,
    "distance_km": 4174.61,
    "latitude_deg": 25.38,
    "longitude_deg": 96.33
  },
  {
    "name": "ZHONGXING-2D",
    "altitude_deg": 62.64,
    "azimuth_deg": 73.86,
    "distance_km": 36395.35,
    "latitude_deg": -0.04,
    "longitude_deg": 130.0
  },
  {
    "name": "IRIDIUM 172",
    "altitude_deg": 4.22,
    "azimuth_deg": 180.94,
    "distance_km": 2827.77,
    "latitude_deg": -30.19,
    "longitude_deg": 107.17
  },
  {
    "name": "HELLAS-SAT 4 & SGS-1",
    "altitude_deg": 12.67,
    "azimuth_deg": 272.6,
    "distance_km": 40305.82,
    "latitude_deg": -0.07,
    "longitude_deg": 38.91
  },
  {
    "name": "GSAT-31",
    "altitude_deg": 21.98,
    "azimuth_deg": 273.98,
    "distance_km": 39369.36,
    "latitude_deg": -0.02,
    "longitude_deg": 47.88
  },
  {
    "name": "NUSANTARA SATU",
    "altitude_deg": 44.89,
    "azimuth_deg": 81.34,
    "distance_km": 37401.37,
    "latitude_deg": 0.04,
    "longitude_deg": 146.03
  },
  {
    "name": "ONEWEB-0011",
    "altitude_deg": 18.4,
    "azimuth_deg": 98.21,
    "distance_km": 2558.4,
    "latitude_deg": -9.17,
    "longitude_deg": 126.32
  },
  {
    "name": "S5",
    "altitude_deg": 6.62,
    "azimuth_deg": 83.05,
    "distance_km": 41197.48,
    "latitude_deg": 4.86,
    "longitude_deg": -178.39
  },
  {
    "name": "ZHONGXING-6C",
    "altitude_deg": 62.04,
    "azimuth_deg": 74.19,
    "distance_km": 36422.66,
    "latitude_deg": -0.01,
    "longitude_deg": 130.54
  },
  {
    "name": "WGS 10 (USA 291)",
    "altitude_deg": 35.21,
    "azimuth_deg": 276.31,
    "distance_km": 38164.21,
    "latitude_deg": -0.01,
    "longitude_deg": 60.28
  },
  {
    "name": "TIANLIAN 2-01",
    "altitude_deg": 53.51,
    "azimuth_deg": 281.45,
    "distance_km": 36861.31,
    "latitude_deg": 0.0,
    "longitude_deg": 76.96
  },
  {
    "name": "O3B FM17",
    "altitude_deg": 58.42,
    "azimuth_deg": 68.34,
    "distance_km": 8612.44,
    "latitude_deg": 0.04,
    "longitude_deg": 124.47
  },
  {
    "name": "ARABSAT-6A",
    "altitude_deg": 4.06,
    "azimuth_deg": 271.6,
    "distance_km": 41246.19,
    "latitude_deg": 0.04,
    "longitude_deg": 30.44
  },
  {
    "name": "BEIDOU-3 IGSO-1",
    "altitude_deg": 15.69,
    "azimuth_deg": 8.24,
    "distance_km": 40030.07,
    "latitude_deg": 58.04,
    "longitude_deg": 121.91
  },
  {
    "name": "BEIDOU-2 G8",
    "altitude_deg": 46.08,
    "azimuth_deg": 78.02,
    "distance_km": 37350.61,
    "latitude_deg": 1.83,
    "longitude_deg": 144.56
  },
  {
    "name": "YAMAL 601",
    "altitude_deg": 23.12,
    "azimuth_deg": 274.16,
    "distance_km": 39243.39,
    "latitude_deg": -0.02,
    "longitude_deg": 48.97
  },
  {
    "name": "BUFENG 1B",
    "altitude_deg": 4.38,
    "azimuth_deg": 275.57,
    "distance_km": 2198.96,
    "latitude_deg": -4.77,
    "longitude_deg": 89.11
  },
  {
    "name": "BEIDOU-3 IGSO-2",
    "altitude_deg": 59.83,
    "azimuth_deg": 128.02,
    "distance_km": 36618.56,
    "latitude_deg": -22.0,
    "longitude_deg": 129.32
  },
  {
    "name": "FORMOSAT 7-3",
    "altitude_deg": 8.96,
    "azimuth_deg": 199.03,
    "distance_km": 1890.0,
    "latitude_deg": -21.71,
    "longitude_deg": 102.18
  },
  {
    "name": "DSX",
    "altitude_deg": -1.37,
    "azimuth_deg": 41.9,
    "distance_km": 17190.17,
    "latitude_deg": 41.27,
    "longitude_deg": 164.58
  },
  {
    "name": "FORMOSAT 7-2",
    "altitude_deg": 20.94,
    "azimuth_deg": 343.98,
    "distance_km": 1295.83,
    "latitude_deg": 2.81,
    "longitude_deg": 104.84
  },
  {
    "name": "EDRS-C",
    "altitude_deg": 48.75,
    "azimuth_deg": 80.16,
    "distance_km": 37153.28,
    "latitude_deg": 0.06,
    "longitude_deg": 142.53
  },
  {
    "name": "INTELSAT 39 (IS-39)",
    "altitude_deg": 37.01,
    "azimuth_deg": 276.69,
    "distance_km": 38016.02,
    "latitude_deg": 0.0,
    "longitude_deg": 61.95
  },
  {
    "name": "AEHF-5 (USA 292)",
    "altitude_deg": 71.1,
    "azimuth_deg": 298.4,
    "distance_km": 36291.33,
    "latitude_deg": 0.9,
    "longitude_deg": 93.48
  },
  {
    "name": "NAVSTAR 78 (USA 293)",
    "altitude_deg": -2.17,
    "azimuth_deg": 330.83,
    "distance_km": 26061.0,
    "latitude_deg": 55.59,
    "longitude_deg": 50.1
  },
  {
    "name": "BEIDOU-3 M23",
    "altitude_deg": 11.79,
    "azimuth_deg": 92.96,
    "distance_km": 25881.11,
    "latitude_deg": -5.56,
    "longitude_deg": 173.3
  },
  {
    "name": "MEV-1",
    "altitude_deg": 33.68,
    "azimuth_deg": 83.49,
    "distance_km": 38290.78,
    "latitude_deg": 0.38,
    "longitude_deg": 156.26
  },
  {
    "name": "TJS-4",
    "altitude_deg": 60.76,
    "azimuth_deg": 285.0,
    "distance_km": 36472.66,
    "latitude_deg": -0.01,
    "longitude_deg": 83.5
  },
  {
    "name": "BEIDOU-3 IGSO-3",
    "altitude_deg": 68.98,
    "azimuth_deg": 182.08,
    "distance_km": 35969.41,
    "latitude_deg": -24.8,
    "longitude_deg": 106.9
  },
  {
    "name": "NINGXIA-1 4",
    "altitude_deg": 9.15,
    "azimuth_deg": 81.17,
    "distance_km": 2605.48,
    "latitude_deg": -3.32,
    "longitude_deg": 128.12
  },
  {
    "name": "BEIDOU-3 M22",
    "altitude_deg": 75.57,
    "azimuth_deg": 82.65,
    "distance_km": 21696.64,
    "latitude_deg": -5.35,
    "longitude_deg": 118.73
  },
  {
    "name": "TIBA-1",
    "altitude_deg": 9.18,
    "azimuth_deg": 272.25,
    "distance_km": 40673.42,
    "latitude_deg": 0.04,
    "longitude_deg": 35.51
  },
  {
    "name": "COSMOS 2544 [GLONASS-M]",
    "altitude_deg": 40.57,
    "azimuth_deg": 295.98,
    "distance_km": 20907.94,
    "latitude_deg": 10.2,
    "longitude_deg": 72.96
  },
  {
    "name": "BEIDOU-3 M20",
    "altitude_deg": 34.07,
    "azimuth_deg": 302.35,
    "distance_km": 23814.07,
    "latitude_deg": 16.94,
    "longitude_deg": 68.96
  },
  {
    "name": "JCSAT-18 (KACIFIC 1)",
    "altitude_deg": 40.53,
    "azimuth_deg": 82.53,
    "distance_km": 37738.96,
    "latitude_deg": -0.01,
    "longitude_deg": 150.02
  },
  {
    "name": "TIANYAN 02",
    "altitude_deg": 50.07,
    "azimuth_deg": 167.59,
    "distance_km": 737.49,
    "latitude_deg": -10.73,
    "longitude_deg": 108.45
  },
  {
    "name": "ELEKTRO-L 3",
    "altitude_deg": 52.47,
    "azimuth_deg": 281.09,
    "distance_km": 36926.76,
    "latitude_deg": 0.02,
    "longitude_deg": 76.03
  },
  {
    "name": "SHIJIAN-20 (SJ-20)",
    "altitude_deg": 64.54,
    "azimuth_deg": 292.66,
    "distance_km": 36299.39,
    "latitude_deg": 1.73,
    "longitude_deg": 87.61
  },
  {
    "name": "TJS-5",
    "altitude_deg": 81.87,
    "azimuth_deg": 358.59,
    "distance_km": 35830.02,
    "latitude_deg": 0.01,
    "longitude_deg": 107.43
  },
  {
    "name": "GSAT-30",
    "altitude_deg": 60.2,
    "azimuth_deg": 284.7,
    "distance_km": 36495.31,
    "latitude_deg": 0.0,
    "longitude_deg": 83.0
  },
  {
    "name": "STARLINK-1172",
    "altitude_deg": -1.15,
    "azimuth_deg": 172.07,
    "distance_km": 2847.37,
    "latitude_deg": -31.0,
    "longitude_deg": 111.39
  },
  {
    "name": "STARLINK-1147",
    "altitude_deg": 0.59,
    "azimuth_deg": 272.05,
    "distance_km": 2094.45,
    "latitude_deg": -5.91,
    "longitude_deg": 89.39
  },
  {
    "name": "STARLINK-1152",
    "altitude_deg": 0.68,
    "azimuth_deg": 224.36,
    "distance_km": 2538.82,
    "latitude_deg": -21.99,
    "longitude_deg": 91.49
  },
  {
    "name": "ONEWEB-0023",
    "altitude_deg": 6.36,
    "azimuth_deg": 242.16,
    "distance_km": 3497.53,
    "latitude_deg": -18.64,
    "longitude_deg": 82.37
  },
  {
    "name": "ONEWEB-0036",
    "altitude_deg": 1.91,
    "azimuth_deg": 228.46,
    "distance_km": 3940.2,
    "latitude_deg": -26.42,
    "longitude_deg": 81.99
  },
  {
    "name": "ONEWEB-0047",
    "altitude_deg": 4.25,
    "azimuth_deg": 234.81,
    "distance_km": 3699.98,
    "latitude_deg": -22.57,
    "longitude_deg": 82.2
  },
  {
    "name": "ONEWEB-0048",
    "altitude_deg": 8.21,
    "azimuth_deg": 286.94,
    "distance_km": 3324.82,
    "latitude_deg": 1.01,
    "longitude_deg": 83.13
  },
  {
    "name": "ONEWEB-0049",
    "altitude_deg": 9.21,
    "azimuth_deg": 259.27,
    "distance_km": 3244.97,
    "latitude_deg": -10.79,
    "longitude_deg": 82.69
  },
  {
    "name": "ONEWEB-0052",
    "altitude_deg": 2.02,
    "azimuth_deg": 309.33,
    "distance_km": 3912.57,
    "latitude_deg": 12.86,
    "longitude_deg": 83.52
  },
  {
    "name": "ONEWEB-0056",
    "altitude_deg": -3.0,
    "azimuth_deg": 320.15,
    "distance_km": 4474.59,
    "latitude_deg": 20.7,
    "longitude_deg": 83.86
  },
  {
    "name": "ONEWEB-0057",
    "altitude_deg": 8.06,
    "azimuth_deg": 250.33,
    "distance_km": 3344.41,
    "latitude_deg": -14.74,
    "longitude_deg": 82.52
  },
  {
    "name": "STARLINK-1216",
    "altitude_deg": 1.77,
    "azimuth_deg": 313.33,
    "distance_km": 2504.13,
    "latitude_deg": 7.8,
    "longitude_deg": 92.21
  },
  {
    "name": "JCSAT-17",
    "altitude_deg": 55.25,
    "azimuth_deg": 73.59,
    "distance_km": 36748.07,
    "latitude_deg": 2.02,
    "longitude_deg": 136.09
  },
  {
    "name": "GEO-KOMPSAT-2B",
    "altitude_deg": 64.55,
    "azimuth_deg": 72.33,
    "distance_km": 36313.46,
    "latitude_deg": 0.0,
    "longitude_deg": 128.25
  },
  {
    "name": "MERIDIAN 9",
    "altitude_deg": 13.84,
    "azimuth_deg": 356.47,
    "distance_km": 42922.33,
    "latitude_deg": 61.15,
    "longitude_deg": 100.79
  },
  {
    "name": "BEIDOU-3 G2",
    "altitude_deg": 56.07,
    "azimuth_deg": 287.74,
    "distance_km": 36714.97,
    "latitude_deg": 2.42,
    "longitude_deg": 79.99
  },
  {
    "name": "COSMOS 2545 [GLONASS-M]",
    "altitude_deg": 30.81,
    "azimuth_deg": 134.4,
    "distance_km": 21628.24,
    "latitude_deg": -36.08,
    "longitude_deg": 147.69
  },
  {
    "name": "AEHF-6 (USA 298)",
    "altitude_deg": 54.7,
    "azimuth_deg": 81.82,
    "distance_km": 36957.08,
    "latitude_deg": -1.85,
    "longitude_deg": 137.58
  },
  {
    "name": "STARLINK-1347",
    "altitude_deg": -1.25,
    "azimuth_deg": 95.42,
    "distance_km": 2739.9,
    "latitude_deg": -8.49,
    "longitude_deg": 131.2
  },
  {
    "name": "COSMOS 2546",
    "altitude_deg": 2.41,
    "azimuth_deg": 22.31,
    "distance_km": 43903.76,
    "latitude_deg": 61.74,
    "longitude_deg": 159.53
  },
  {
    "name": "STARLINK-1448",
    "altitude_deg": -1.32,
    "azimuth_deg": 114.3,
    "distance_km": 2859.19,
    "latitude_deg": -16.19,
    "longitude_deg": 130.64
  },
  {
    "name": "STARLINK-1451",
    "altitude_deg": 13.77,
    "azimuth_deg": 58.63,
    "distance_km": 1579.12,
    "latitude_deg": -0.11,
    "longitude_deg": 118.5
  },
  {
    "name": "STARLINK-1452",
    "altitude_deg": -4.32,
    "azimuth_deg": 333.5,
    "distance_km": 3114.55,
    "latitude_deg": 17.22,
    "longitude_deg": 95.45
  },
  {
    "name": "STARLINK-1460",
    "altitude_deg": 0.33,
    "azimuth_deg": 355.85,
    "distance_km": 2653.27,
    "latitude_deg": 15.71,
    "longitude_deg": 105.95
  },
  {
    "name": "STARLINK-1422",
    "altitude_deg": 17.56,
    "azimuth_deg": 119.51,
    "distance_km": 1397.12,
    "latitude_deg": -12.27,
    "longitude_deg": 117.46
  },
  {
    "name": "STARLINK-1478",
    "altitude_deg": 0.4,
    "azimuth_deg": 276.26,
    "distance_km": 2657.27,
    "latitude_deg": -3.96,
    "longitude_deg": 85.13
  },
  {
    "name": "BEIDOU-3 G3",
    "altitude_deg": 79.52,
    "azimuth_deg": 19.75,
    "distance_km": 35872.05,
    "latitude_deg": 1.49,
    "longitude_deg": 110.6
  },
  {
    "name": "NAVSTAR 79 (USA 304)",
    "altitude_deg": 6.15,
    "azimuth_deg": 300.13,
    "distance_km": 25252.3,
    "latitude_deg": 25.37,
    "longitude_deg": 43.47
  },
  {
    "name": "APSTAR-6D",
    "altitude_deg": 58.13,
    "azimuth_deg": 76.32,
    "distance_km": 36606.58,
    "latitude_deg": 0.05,
    "longitude_deg": 134.05
  },
  {
    "name": "KOREASAT 116",
    "altitude_deg": 77.01,
    "azimuth_deg": 51.49,
    "distance_km": 35919.47,
    "latitude_deg": 0.03,
    "longitude_deg": 116.22
  },
  {
    "name": "ZINYUAN-3",
    "altitude_deg": 9.99,
    "azimuth_deg": 284.95,
    "distance_km": 1712.69,
    "latitude_deg": -3.06,
    "longitude_deg": 93.89
  },
  {
    "name": "EXPRESS 103",
    "altitude_deg": 74.65,
    "azimuth_deg": 301.54,
    "distance_km": 35980.04,
    "latitude_deg": 0.02,
    "longitude_deg": 96.5
  },
  {
    "name": "EXPRESS 80",
    "altitude_deg": 56.86,
    "azimuth_deg": 282.91,
    "distance_km": 36687.54,
    "latitude_deg": -0.0,
    "longitude_deg": 79.98
  },
  {
    "name": "BSAT-4B",
    "altitude_deg": 81.47,
    "azimuth_deg": 18.0,
    "distance_km": 35826.52,
    "latitude_deg": -0.0,
    "longitude_deg": 109.83
  },
  {
    "name": "GAOFEN-13 01",
    "altitude_deg": 75.3,
    "azimuth_deg": 55.02,
    "distance_km": 35931.82,
    "latitude_deg": 0.34,
    "longitude_deg": 117.81
  },
  {
    "name": "STARLINK-1795",
    "altitude_deg": 7.9,
    "azimuth_deg": 322.14,
    "distance_km": 1957.68,
    "latitude_deg": 6.06,
    "longitude_deg": 97.65
  },
  {
    "name": "STARLINK-1805",
    "altitude_deg": 6.07,
    "azimuth_deg": 81.57,
    "distance_km": 2110.47,
    "latitude_deg": -4.02,
    "longitude_deg": 125.08
  },
  {
    "name": "STARLINK-1816",
    "altitude_deg": 33.74,
    "azimuth_deg": 39.45,
    "distance_km": 912.37,
    "latitude_deg": -2.0,
    "longitude_deg": 111.59
  },
  {
    "name": "STARLINK-1817",
    "altitude_deg": -3.24,
    "azimuth_deg": 37.8,
    "distance_km": 3074.83,
    "latitude_deg": 14.02,
    "longitude_deg": 123.86
  },
  {
    "name": "YAOGAN-30 08C",
    "altitude_deg": -4.73,
    "azimuth_deg": 189.16,
    "distance_km": 3330.14,
    "latitude_deg": -35.14,
    "longitude_deg": 102.27
  },
  {
    "name": "TIANQI-6",
    "altitude_deg": -3.94,
    "azimuth_deg": 117.28,
    "distance_km": 3182.63,
    "latitude_deg": -18.44,
    "longitude_deg": 133.01
  },
  {
    "name": "TIANTONG-1 2",
    "altitude_deg": 68.35,
    "azimuth_deg": 70.27,
    "distance_km": 36167.94,
    "latitude_deg": -0.45,
    "longitude_deg": 124.93
  },
  {
    "name": "LUCAS (JDRS-1)",
    "altitude_deg": 68.69,
    "azimuth_deg": 291.7,
    "distance_km": 36147.74,
    "latitude_deg": 0.02,
    "longitude_deg": 90.77
  },
  {
    "name": "GONETS-M 20",
    "altitude_deg": 0.62,
    "azimuth_deg": 169.84,
    "distance_km": 4590.16,
    "latitude_deg": -41.86,
    "longitude_deg": 115.49
  },
  {
    "name": "CMS-01",
    "altitude_deg": 60.23,
    "azimuth_deg": 284.72,
    "distance_km": 36527.54,
    "latitude_deg": 0.01,
    "longitude_deg": 83.02
  },
  {
    "name": "TURKSAT 5A",
    "altitude_deg": 4.55,
    "azimuth_deg": 271.59,
    "distance_km": 41175.65,
    "latitude_deg": -0.03,
    "longitude_deg": 30.91
  },
  {
    "name": "TIANTONG-1 3",
    "altitude_deg": 58.0,
    "azimuth_deg": 286.96,
    "distance_km": 36618.44,
    "latitude_deg": 1.54,
    "longitude_deg": 81.47
  },
  {
    "name": "STARLINK-2076",
    "altitude_deg": 7.31,
    "azimuth_deg": 353.48,
    "distance_km": 2001.38,
    "latitude_deg": 9.75,
    "longitude_deg": 105.71
  },
  {
    "name": "STARLINK-2088",
    "altitude_deg": 19.78,
    "azimuth_deg": 87.24,
    "distance_km": 1301.1,
    "latitude_deg": -6.3,
    "longitude_deg": 117.83
  },
  {
    "name": "STARLINK-2092",
    "altitude_deg": -3.57,
    "azimuth_deg": 126.38,
    "distance_km": 3137.55,
    "latitude_deg": -22.0,
    "longitude_deg": 130.68
  },
  {
    "name": "TJS-6",
    "altitude_deg": 10.42,
    "azimuth_deg": 87.82,
    "distance_km": 40542.9,
    "latitude_deg": -0.19,
    "longitude_deg": 178.5
  },
  {
    "name": "STARLINK-2031",
    "altitude_deg": -2.36,
    "azimuth_deg": 323.95,
    "distance_km": 2966.2,
    "latitude_deg": 13.72,
    "longitude_deg": 92.58
  },
  {
    "name": "STARLINK-2040",
    "altitude_deg": 38.6,
    "azimuth_deg": 328.61,
    "distance_km": 829.92,
    "latitude_deg": -2.28,
    "longitude_deg": 104.8
  },
  {
    "name": "STARLINK-2041",
    "altitude_deg": -5.0,
    "azimuth_deg": 356.68,
    "distance_km": 3298.47,
    "latitude_deg": 21.56,
    "longitude_deg": 105.91
  },
  {
    "name": "STARLINK-2052",
    "altitude_deg": 9.12,
    "azimuth_deg": 155.7,
    "distance_km": 1721.09,
    "latitude_deg": -19.97,
    "longitude_deg": 113.82
  },
  {
    "name": "STARLINK-2065",
    "altitude_deg": -1.41,
    "azimuth_deg": 157.54,
    "distance_km": 2876.41,
    "latitude_deg": -29.45,
    "longitude_deg": 118.07
  },
  {
    "name": "ARKTIKA-M 1",
    "altitude_deg": 2.03,
    "azimuth_deg": 21.89,
    "distance_km": 44230.39,
    "latitude_deg": 62.32,
    "longitude_deg": 159.73
  },
  {
    "name": "STARLINK-2140",
    "altitude_deg": 1.52,
    "azimuth_deg": 331.19,
    "distance_km": 2528.32,
    "latitude_deg": 11.98,
    "longitude_deg": 97.24
  },
  {
    "name": "STARLINK-2171",
    "altitude_deg": -1.61,
    "azimuth_deg": 290.4,
    "distance_km": 2882.95,
    "latitude_deg": 2.05,
    "longitude_deg": 84.63
  },
  {
    "name": "STARLINK-2180",
    "altitude_deg": -0.13,
    "azimuth_deg": 245.37,
    "distance_km": 2722.69,
    "latitude_deg": -15.9,
    "longitude_deg": 85.81
  },
  {
    "name": "STARLINK-2379",
    "altitude_deg": -2.54,
    "azimuth_deg": 232.82,
    "distance_km": 3009.26,
    "latitude_deg": -21.7,
    "longitude_deg": 85.78
  },
  {
    "name": "STARLINK-2380",
    "altitude_deg": 23.21,
    "azimuth_deg": 275.32,
    "distance_km": 1177.65,
    "latitude_deg": -5.98,
    "longitude_deg": 98.6
  },
  {
    "name": "STARLINK-2391",
    "altitude_deg": 5.63,
    "azimuth_deg": 101.01,
    "distance_km": 2151.68,
    "latitude_deg": -9.97,
    "longitude_deg": 125.54
  },
  {
    "name": "STARLINK-2408",
    "altitude_deg": 24.99,
    "azimuth_deg": 111.0,
    "distance_km": 1123.74,
    "latitude_deg": -9.87,
    "longitude_deg": 115.61
  },
  {
    "name": "STARLINK-2411",
    "altitude_deg": -0.76,
    "azimuth_deg": 200.26,
    "distance_km": 2800.5,
    "latitude_deg": -29.2,
    "longitude_deg": 98.39
  },
  {
    "name": "STARLINK-2419",
    "altitude_deg": 4.42,
    "azimuth_deg": 167.2,
    "distance_km": 2266.1,
    "latitude_deg": -25.51,
    "longitude_deg": 112.18
  },
  {
    "name": "STARLINK-2424",
    "altitude_deg": 4.15,
    "azimuth_deg": 63.04,
    "distance_km": 2276.32,
    "latitude_deg": 2.0,
    "longitude_deg": 124.6
  },
  {
    "name": "STARLINK-2431",
    "altitude_deg": 0.96,
    "azimuth_deg": 260.44,
    "distance_km": 2601.33,
    "latitude_deg": -9.99,
    "longitude_deg": 85.52
  },
  {
    "name": "SHIYAN-9 (SY-9)",
    "altitude_deg": 46.59,
    "azimuth_deg": 97.51,
    "distance_km": 37353.58,
    "latitude_deg": -10.04,
    "longitude_deg": 145.35
  },
  {
    "name": "STARLINK-2280",
    "altitude_deg": 3.3,
    "azimuth_deg": 118.26,
    "distance_km": 2366.43,
    "latitude_deg": -15.91,
    "longitude_deg": 125.79
  },
  {
    "name": "CAS500-1",
    "altitude_deg": 12.41,
    "azimuth_deg": 310.43,
    "distance_km": 1557.46,
    "latitude_deg": 1.49,
    "longitude_deg": 97.91
  },
  {
    "name": "STARLINK-2270",
    "altitude_deg": 12.15,
    "azimuth_deg": 215.7,
    "distance_km": 1681.49,
    "latitude_deg": -18.0,
    "longitude_deg": 99.23
  },
  {
    "name": "STARLINK-2301",
    "altitude_deg": 2.49,
    "azimuth_deg": 355.22,
    "distance_km": 1606.61,
    "latitude_deg": 7.12,
    "longitude_deg": 106.44
  },
  {
    "name": "STARLINK-2555",
    "altitude_deg": -3.85,
    "azimuth_deg": 25.3,
    "distance_km": 3150.64,
    "latitude_deg": 17.64,
    "longitude_deg": 119.34
  },
  {
    "name": "SBIRS GEO-5 (USA 315)",
    "altitude_deg": 79.21,
    "azimuth_deg": 357.39,
    "distance_km": 35623.41,
    "latitude_deg": 2.26,
    "longitude_deg": 107.18
  },
  {
    "name": "STARLINK-2740",
    "altitude_deg": -2.57,
    "azimuth_deg": 71.4,
    "distance_km": 3000.19,
    "latitude_deg": 1.7,
    "longitude_deg": 131.83
  },
  {
    "name": "ONEWEB-0230",
    "altitude_deg": 3.1,
    "azimuth_deg": 36.07,
    "distance_km": 3761.64,
    "latitude_deg": 17.19,
    "longitude_deg": 125.38
  },
  {
    "name": "ONEWEB-0237",
    "altitude_deg": -1.02,
    "azimuth_deg": 150.15,
    "distance_km": 4229.54,
    "latitude_deg": -35.54,
    "longitude_deg": 127.49
  },
  {
    "name": "ONEWEB-0234",
    "altitude_deg": 15.98,
    "azimuth_deg": 66.5,
    "distance_km": 2703.72,
    "latitude_deg": 1.36,
    "longitude_deg": 125.93
  },
  {
    "name": "ONEWEB-0238",
    "altitude_deg": 15.12,
    "azimuth_deg": 63.06,
    "distance_km": 2760.07,
    "latitude_deg": 2.67,
    "longitude_deg": 125.88
  },
  {
    "name": "ONEWEB-0214",
    "altitude_deg": 17.63,
    "azimuth_deg": 75.0,
    "distance_km": 2601.34,
    "latitude_deg": -1.66,
    "longitude_deg": 126.02
  },
  {
    "name": "ONEWEB-0213",
    "altitude_deg": 11.55,
    "azimuth_deg": 128.06,
    "distance_km": 3025.96,
    "latitude_deg": -20.54,
    "longitude_deg": 126.77
  },
  {
    "name": "ONEWEB-0224",
    "altitude_deg": -2.88,
    "azimuth_deg": 27.99,
    "distance_km": 4422.19,
    "latitude_deg": 24.57,
    "longitude_deg": 125.08
  },
  {
    "name": "ONEWEB-0190",
    "altitude_deg": 16.87,
    "azimuth_deg": 109.54,
    "distance_km": 2653.74,
    "latitude_deg": -13.0,
    "longitude_deg": 126.49
  },
  {
    "name": "FENGYUN 4B",
    "altitude_deg": 81.04,
    "azimuth_deg": 336.56,
    "distance_km": 35866.18,
    "latitude_deg": 0.09,
    "longitude_deg": 104.58
  },
  {
    "name": "NAVSTAR 81 (USA 319)",
    "altitude_deg": 31.39,
    "azimuth_deg": 94.76,
    "distance_km": 22628.78,
    "latitude_deg": -8.19,
    "longitude_deg": 154.78
  },
  {
    "name": "YAOGAN-30 10C",
    "altitude_deg": 6.29,
    "azimuth_deg": 251.18,
    "distance_km": 2137.19,
    "latitude_deg": -12.29,
    "longitude_deg": 90.37
  },
  {
    "name": "BRIK-II",
    "altitude_deg": -0.75,
    "azimuth_deg": 297.08,
    "distance_km": 2273.79,
    "latitude_deg": 2.31,
    "longitude_deg": 90.12
  },
  {
    "name": "ONEWEB-0261",
    "altitude_deg": 23.55,
    "azimuth_deg": 222.53,
    "distance_km": 2279.94,
    "latitude_deg": -18.55,
    "longitude_deg": 96.27
  },
  {
    "name": "ONEWEB-0267",
    "altitude_deg": 17.41,
    "azimuth_deg": 319.75,
    "distance_km": 2604.23,
    "latitude_deg": 7.84,
    "longitude_deg": 95.25
  },
  {
    "name": "ONEWEB-0273",
    "altitude_deg": 28.06,
    "azimuth_deg": 300.11,
    "distance_km": 2074.69,
    "latitude_deg": 0.25,
    "longitude_deg": 95.54
  },
  {
    "name": "ONEWEB-0280",
    "altitude_deg": 32.74,
    "azimuth_deg": 249.61,
    "distance_km": 1907.1,
    "latitude_deg": -11.01,
    "longitude_deg": 95.94
  },
  {
    "name": "ONEWEB-0281",
    "altitude_deg": 8.05,
    "azimuth_deg": 330.59,
    "distance_km": 3288.23,
    "latitude_deg": 15.38,
    "longitude_deg": 94.96
  },
  {
    "name": "EUTELSAT QUANTUM",
    "altitude_deg": 21.77,
    "azimuth_deg": 274.01,
    "distance_km": 39378.97,
    "latitude_deg": 0.03,
    "longitude_deg": 47.69
  },
  {
    "name": "ZHONGXING-2E",
    "altitude_deg": 76.16,
    "azimuth_deg": 305.48,
    "distance_km": 35937.64,
    "latitude_deg": 0.0,
    "longitude_deg": 98.04
  },
  {
    "name": "GAOFEN-5 02",
    "altitude_deg": -3.55,
    "azimuth_deg": 211.07,
    "distance_km": 3507.66,
    "latitude_deg": -31.76,
    "longitude_deg": 90.18
  },
  {
    "name": "CHINASAT 9B",
    "altitude_deg": 79.08,
    "azimuth_deg": 317.92,
    "distance_km": 35873.17,
    "latitude_deg": 0.02,
    "longitude_deg": 101.4
  },
  {
    "name": "STARLINK-3095",
    "altitude_deg": -2.87,
    "azimuth_deg": 215.15,
    "distance_km": 3114.78,
    "latitude_deg": -28.17,
    "longitude_deg": 90.64
  },
  {
    "name": "STARLINK-3052",
    "altitude_deg": 26.51,
    "azimuth_deg": 267.15,
    "distance_km": 1125.79,
    "latitude_deg": -7.24,
    "longitude_deg": 99.21
  },
  {
    "name": "STARLINK-3059",
    "altitude_deg": 2.59,
    "azimuth_deg": 358.57,
    "distance_km": 2486.62,
    "latitude_deg": 14.16,
    "longitude_deg": 107.07
  },
  {
    "name": "ONEWEB-0321",
    "altitude_deg": -2.09,
    "azimuth_deg": 108.61,
    "distance_km": 4309.42,
    "latitude_deg": -16.26,
    "longitude_deg": 141.77
  },
  {
    "name": "ONEWEB-0342",
    "altitude_deg": -4.26,
    "azimuth_deg": 120.63,
    "distance_km": 4574.31,
    "latitude_deg": -23.71,
    "longitude_deg": 142.08
  },
  {
    "name": "ONEWEB-0357",
    "altitude_deg": -3.19,
    "azimuth_deg": 69.0,
    "distance_km": 4430.59,
    "latitude_deg": 6.43,
    "longitude_deg": 140.94
  },
  {
    "name": "ONEWEB-0364",
    "altitude_deg": -1.11,
    "azimuth_deg": 95.3,
    "distance_km": 4191.77,
    "latitude_deg": -8.68,
    "longitude_deg": 141.52
  },
  {
    "name": "SHIJIAN-21 (SJ-21)",
    "altitude_deg": 61.13,
    "azimuth_deg": 45.49,
    "distance_km": 36446.01,
    "latitude_deg": 10.47,
    "longitude_deg": 125.22
  },
  {
    "name": "SYRACUSE 4A",
    "altitude_deg": 19.47,
    "azimuth_deg": 273.61,
    "distance_km": 39606.16,
    "latitude_deg": -0.02,
    "longitude_deg": 45.49
  },
  {
    "name": "QZS-1R (MICHIBIKI-1R)",
    "altitude_deg": 38.94,
    "azimuth_deg": 25.43,
    "distance_km": 40695.33,
    "latitude_deg": 33.1,
    "longitude_deg": 128.74
  },
  {
    "name": "STARLINK-3151",
    "altitude_deg": 8.99,
    "azimuth_deg": 357.99,
    "distance_km": 1857.89,
    "latitude_deg": 8.57,
    "longitude_deg": 107.06
  },
  {
    "name": "STARLINK-3162",
    "altitude_deg": 4.46,
    "azimuth_deg": 326.07,
    "distance_km": 2224.97,
    "latitude_deg": 8.74,
    "longitude_deg": 97.17
  },
  {
    "name": "STARLINK-3157",
    "altitude_deg": -4.16,
    "azimuth_deg": 358.16,
    "distance_km": 3169.13,
    "latitude_deg": 20.45,
    "longitude_deg": 106.7
  },
  {
    "name": "STARLINK-3146",
    "altitude_deg": 19.72,
    "azimuth_deg": 290.1,
    "distance_km": 1287.31,
    "latitude_deg": -3.33,
    "longitude_deg": 98.12
  },
  {
    "name": "STARLINK-3121",
    "altitude_deg": -1.71,
    "azimuth_deg": 238.28,
    "distance_km": 2888.51,
    "latitude_deg": -19.15,
    "longitude_deg": 85.55
  },
  {
    "name": "STARLINK-3153",
    "altitude_deg": 3.33,
    "azimuth_deg": 8.13,
    "distance_km": 2327.61,
    "latitude_deg": 12.65,
    "longitude_deg": 110.39
  },
  {
    "name": "STARLINK-3140",
    "altitude_deg": 0.52,
    "azimuth_deg": 267.53,
    "distance_km": 2627.54,
    "latitude_deg": -7.32,
    "longitude_deg": 85.12
  },
  {
    "name": "ZHONGXING-1D",
    "altitude_deg": 62.47,
    "azimuth_deg": 73.97,
    "distance_km": 36405.55,
    "latitude_deg": -0.04,
    "longitude_deg": 130.15
  },
  {
    "name": "GSAT0223 (GALILEO 27)",
    "altitude_deg": 16.23,
    "azimuth_deg": 350.28,
    "distance_km": 27165.49,
    "latitude_deg": 53.74,
    "longitude_deg": 93.05
  },
  {
    "name": "GSAT0224 (GALILEO 28)",
    "altitude_deg": 7.92,
    "azimuth_deg": 121.8,
    "distance_km": 28040.21,
    "latitude_deg": -32.2,
    "longitude_deg": 177.99
  },
  {
    "name": "EXPRESS AMU-7",
    "altitude_deg": 46.03,
    "azimuth_deg": 81.03,
    "distance_km": 37340.37,
    "latitude_deg": 0.03,
    "longitude_deg": 144.99
  },
  {
    "name": "EXPRESS AMU-3",
    "altitude_deg": 80.15,
    "azimuth_deg": 325.56,
    "distance_km": 35866.9,
    "latitude_deg": 0.02,
    "longitude_deg": 102.88
  },
  {
    "name": "TIANLIAN 2-02",
    "altitude_deg": 18.17,
    "azimuth_deg": 86.54,
    "distance_km": 39729.25,
    "latitude_deg": 0.02,
    "longitude_deg": 170.96
  },
  {
    "name": "STARLINK-3296",
    "altitude_deg": 24.23,
    "azimuth_deg": 172.15,
    "distance_km": 1135.19,
    "latitude_deg": -15.47,
    "longitude_deg": 108.81
  },
  {
    "name": "STARLINK-3286",
    "altitude_deg": 33.89,
    "azimuth_deg": 135.17,
    "distance_km": 900.88,
    "latitude_deg": -11.3,
    "longitude_deg": 112.05
  },
  {
    "name": "STARLINK-3277",
    "altitude_deg": 2.8,
    "azimuth_deg": 55.06,
    "distance_km": 2383.61,
    "latitude_deg": 4.83,
    "longitude_deg": 124.04
  },
  {
    "name": "STARLINK-3272",
    "altitude_deg": 24.94,
    "azimuth_deg": 25.08,
    "distance_km": 1107.42,
    "latitude_deg": 0.71,
    "longitude_deg": 111.13
  },
  {
    "name": "STARLINK-3276",
    "altitude_deg": -3.48,
    "azimuth_deg": 205.88,
    "distance_km": 3111.81,
    "latitude_deg": -30.65,
    "longitude_deg": 94.46
  },
  {
    "name": "STARLINK-3261",
    "altitude_deg": -4.97,
    "azimuth_deg": 33.67,
    "distance_km": 3279.39,
    "latitude_deg": 16.67,
    "longitude_deg": 123.46
  },
  {
    "name": "TURKSAT 5B",
    "altitude_deg": 15.86,
    "azimuth_deg": 273.19,
    "distance_km": 39968.97,
    "latitude_deg": 0.07,
    "longitude_deg": 42.03
  },
  {
    "name": "INMARSAT 6-F1",
    "altitude_deg": 61.03,
    "azimuth_deg": 285.24,
    "distance_km": 36469.57,
    "latitude_deg": 0.02,
    "longitude_deg": 83.76
  },
  {
    "name": "SHIYAN-12 01 (SY-12 01)",
    "altitude_deg": 45.95,
    "azimuth_deg": 279.05,
    "distance_km": 37292.03,
    "latitude_deg": 0.09,
    "longitude_deg": 70.15
  },
  {
    "name": "SHIYAN-12 02 (SY-12 02)",
    "altitude_deg": 31.1,
    "azimuth_deg": 80.74,
    "distance_km": 38554.49,
    "latitude_deg": 2.88,
    "longitude_deg": 158.23
  },
  {
    "name": "TJS-9",
    "altitude_deg": 54.58,
    "azimuth_deg": 77.97,
    "distance_km": 36820.41,
    "latitude_deg": 0.07,
    "longitude_deg": 137.25
  },
  {
    "name": "USA 325",
    "altitude_deg": 28.67,
    "azimuth_deg": 275.03,
    "distance_km": 38695.8,
    "latitude_deg": -0.05,
    "longitude_deg": 54.2
  },
  {
    "name": "ASCENT",
    "altitude_deg": 27.37,
    "azimuth_deg": 273.97,
    "distance_km": 38590.7,
    "latitude_deg": -0.73,
    "longitude_deg": 52.92
  },
  {
    "name": "JILIN-1 GAOFEN 03D11",
    "altitude_deg": 8.52,
    "azimuth_deg": 343.8,
    "distance_km": 1624.05,
    "latitude_deg": 6.28,
    "longitude_deg": 103.8
  },
  {
    "name": "STARLINK-3677",
    "altitude_deg": -4.07,
    "azimuth_deg": 286.3,
    "distance_km": 3189.63,
    "latitude_deg": 1.27,
    "longitude_deg": 81.43
  },
  {
    "name": "STARLINK-3679",
    "altitude_deg": 8.92,
    "azimuth_deg": 237.1,
    "distance_km": 1893.06,
    "latitude_deg": -15.19,
    "longitude_deg": 94.02
  },
  {
    "name": "STARLINK-3635",
    "altitude_deg": 6.27,
    "azimuth_deg": 289.37,
    "distance_km": 2073.13,
    "latitude_deg": -0.91,
    "longitude_deg": 91.28
  },
  {
    "name": "STARLINK-3655",
    "altitude_deg": 18.36,
    "azimuth_deg": 200.9,
    "distance_km": 1348.08,
    "latitude_deg": -16.88,
    "longitude_deg": 103.65
  },
  {
    "name": "STARLINK-3636",
    "altitude_deg": -1.12,
    "azimuth_deg": 221.14,
    "distance_km": 2821.34,
    "latitude_deg": -24.57,
    "longitude_deg": 90.47
  },
  {
    "name": "STARLINK-3708",
    "altitude_deg": -1.51,
    "azimuth_deg": 76.9,
    "distance_km": 2854.07,
    "latitude_deg": -0.92,
    "longitude_deg": 131.28
  },
  {
    "name": "STARLINK-3737",
    "altitude_deg": -1.84,
    "azimuth_deg": 27.34,
    "distance_km": 2883.51,
    "latitude_deg": 15.1,
    "longitude_deg": 119.03
  },
  {
    "name": "STARLINK-3715",
    "altitude_deg": -2.95,
    "azimuth_deg": 355.98,
    "distance_km": 3016.87,
    "latitude_deg": 19.02,
    "longitude_deg": 105.75
  },
  {
    "name": "STARLINK-3661",
    "altitude_deg": -0.36,
    "azimuth_deg": 106.64,
    "distance_km": 2728.78,
    "latitude_deg": -12.89,
    "longitude_deg": 130.39
  },
  {
    "name": "STARLINK-3718",
    "altitude_deg": 10.3,
    "azimuth_deg": 47.19,
    "distance_km": 1770.92,
    "latitude_deg": 3.14,
    "longitude_deg": 118.26
  },
  {
    "name": "GNOMES-3",
    "altitude_deg": 10.45,
    "azimuth_deg": 331.06,
    "distance_km": 1950.73,
    "latitude_deg": 7.12,
    "longitude_deg": 99.92
  },
  {
    "name": "ZHONGXING-6D",
    "altitude_deg": 68.06,
    "azimuth_deg": 69.23,
    "distance_km": 36178.73,
    "latitude_deg": -0.05,
    "longitude_deg": 125.04
  },
  {
    "name": "STARLINK-3889",
    "altitude_deg": -3.14,
    "azimuth_deg": 295.66,
    "distance_km": 3050.39,
    "latitude_deg": 4.74,
    "longitude_deg": 84.13
  },
  {
    "name": "JILIN-1 GAOFEN 3D04",
    "altitude_deg": 8.78,
    "azimuth_deg": 118.59,
    "distance_km": 1634.99,
    "latitude_deg": -13.29,
    "longitude_deg": 119.94
  },
  {
    "name": "JILIN-1 KUANFU 01C",
    "altitude_deg": 8.3,
    "azimuth_deg": 220.3,
    "distance_km": 1937.89,
    "latitude_deg": -19.03,
    "longitude_deg": 96.69
  },
  {
    "name": "STARLINK-3856",
    "altitude_deg": -4.75,
    "azimuth_deg": 131.29,
    "distance_km": 3272.65,
    "latitude_deg": -24.59,
    "longitude_deg": 130.49
  },
  {
    "name": "STARLINK-3835",
    "altitude_deg": 16.82,
    "azimuth_deg": 149.03,
    "distance_km": 1416.28,
    "latitude_deg": -16.59,
    "longitude_deg": 113.63
  },
  {
    "name": "STARLINK-3918",
    "altitude_deg": 11.02,
    "azimuth_deg": 350.46,
    "distance_km": 1721.03,
    "latitude_deg": 7.13,
    "longitude_deg": 105.26
  },
  {
    "name": "STARLINK-3892",
    "altitude_deg": 20.42,
    "azimuth_deg": 102.59,
    "distance_km": 1262.4,
    "latitude_deg": -8.95,
    "longitude_deg": 117.32
  },
  {
    "name": "STARLINK-3857",
    "altitude_deg": 7.57,
    "azimuth_deg": 147.58,
    "distance_km": 1979.6,
    "latitude_deg": -20.73,
    "longitude_deg": 116.95
  },
  {
    "name": "STARLINK-3884",
    "altitude_deg": -0.85,
    "azimuth_deg": 319.32,
    "distance_km": 2769.95,
    "latitude_deg": 11.14,
    "longitude_deg": 92.18
  },
  {
    "name": "STARLINK-3894",
    "altitude_deg": 48.07,
    "azimuth_deg": 300.87,
    "distance_km": 706.41,
    "latitude_deg": -4.87,
    "longitude_deg": 104.23
  },
  {
    "name": "STARLINK-3949",
    "altitude_deg": 1.52,
    "azimuth_deg": 279.31,
    "distance_km": 1864.62,
    "latitude_deg": -4.03,
    "longitude_deg": 91.61
  },
  {
    "name": "STARLINK-4013",
    "altitude_deg": -4.97,
    "azimuth_deg": 147.86,
    "distance_km": 3305.28,
    "latitude_deg": -30.48,
    "longitude_deg": 124.65
  },
  {
    "name": "STARLINK-3989",
    "altitude_deg": -3.85,
    "azimuth_deg": 174.63,
    "distance_km": 3159.43,
    "latitude_deg": -33.97,
    "longitude_deg": 110.54
  },
  {
    "name": "STARLINK-3995",
    "altitude_deg": 1.59,
    "azimuth_deg": 126.64,
    "distance_km": 2520.26,
    "latitude_deg": -19.19,
    "longitude_deg": 125.6
  },
  {
    "name": "STARLINK-3846",
    "altitude_deg": 6.14,
    "azimuth_deg": 92.62,
    "distance_km": 2088.01,
    "latitude_deg": -7.37,
    "longitude_deg": 125.19
  },
  {
    "name": "STARLINK-3854",
    "altitude_deg": 7.32,
    "azimuth_deg": 165.24,
    "distance_km": 2000.4,
    "latitude_deg": -23.06,
    "longitude_deg": 112.15
  },
  {
    "name": "STARLINK-4036",
    "altitude_deg": 7.21,
    "azimuth_deg": 268.79,
    "distance_km": 2001.27,
    "latitude_deg": -6.96,
    "longitude_deg": 90.8
  },
  {
    "name": "STARLINK-4046",
    "altitude_deg": 8.0,
    "azimuth_deg": 193.21,
    "distance_km": 1947.32,
    "latitude_deg": -22.7,
    "longitude_deg": 103.65
  },
  {
    "name": "STARLINK-4196",
    "altitude_deg": 2.38,
    "azimuth_deg": 233.34,
    "distance_km": 2438.61,
    "latitude_deg": -18.79,
    "longitude_deg": 90.26
  },
  {
    "name": "STARLINK-4010",
    "altitude_deg": -3.55,
    "azimuth_deg": 184.29,
    "distance_km": 3120.52,
    "latitude_deg": -33.67,
    "longitude_deg": 105.29
  },
  {
    "name": "CMS-02 (GSAT 24)",
    "altitude_deg": 60.2,
    "azimuth_deg": 284.73,
    "distance_km": 36515.41,
    "latitude_deg": 0.02,
    "longitude_deg": 83.0
  },
  {
    "name": "MEASAT 3D",
    "altitude_deg": 69.46,
    "azimuth_deg": 292.65,
    "distance_km": 36131.82,
    "latitude_deg": 0.03,
    "longitude_deg": 91.49
  },
  {
    "name": "WFOV (USA 332)",
    "altitude_deg": 72.55,
    "azimuth_deg": 52.04,
    "distance_km": 36030.25,
    "latitude_deg": 2.32,
    "longitude_deg": 119.27
  },
  {
    "name": "STARLINK-4281",
    "altitude_deg": -3.85,
    "azimuth_deg": 64.22,
    "distance_km": 3139.03,
    "latitude_deg": 5.14,
    "longitude_deg": 131.76
  },
  {
    "name": "STARLINK-4157",
    "altitude_deg": 3.58,
    "azimuth_deg": 34.83,
    "distance_km": 2306.31,
    "latitude_deg": 9.18,
    "longitude_deg": 118.7
  },
  {
    "name": "STARLINK-4155",
    "altitude_deg": -0.17,
    "azimuth_deg": 91.41,
    "distance_km": 2703.14,
    "latitude_deg": -6.9,
    "longitude_deg": 130.76
  },
  {
    "name": "STARLINK-4405",
    "altitude_deg": -2.51,
    "azimuth_deg": 290.02,
    "distance_km": 3033.92,
    "latitude_deg": 2.37,
    "longitude_deg": 83.36
  },
  {
    "name": "STARLINK-4397",
    "altitude_deg": -2.21,
    "azimuth_deg": 263.56,
    "distance_km": 3005.05,
    "latitude_deg": -9.01,
    "longitude_deg": 81.82
  },
  {
    "name": "STARLINK-4427",
    "altitude_deg": -2.26,
    "azimuth_deg": 286.84,
    "distance_km": 3002.8,
    "latitude_deg": 0.97,
    "longitude_deg": 83.16
  },
  {
    "name": "SBIRS GEO-6 (USA 336)",
    "altitude_deg": 53.03,
    "azimuth_deg": 81.44,
    "distance_km": 36886.26,
    "latitude_deg": -1.39,
    "longitude_deg": 138.96
  },
  {
    "name": "YAOGAN-35 04C",
    "altitude_deg": -3.92,
    "azimuth_deg": 165.23,
    "distance_km": 3117.59,
    "latitude_deg": -32.78,
    "longitude_deg": 115.44
  },
  {
    "name": "STARLINK-4513",
    "altitude_deg": -2.06,
    "azimuth_deg": 120.38,
    "distance_km": 2930.54,
    "latitude_deg": -18.81,
    "longitude_deg": 130.27
  },
  {
    "name": "STARLINK-4514",
    "altitude_deg": 17.7,
    "azimuth_deg": 69.16,
    "distance_km": 1370.67,
    "latitude_deg": -2.92,
    "longitude_deg": 117.77
  },
  {
    "name": "STARLINK-4576",
    "altitude_deg": 14.94,
    "azimuth_deg": 131.53,
    "distance_km": 1507.36,
    "latitude_deg": -14.88,
    "longitude_deg": 116.98
  },
  {
    "name": "STARLINK-4582",
    "altitude_deg": 24.5,
    "azimuth_deg": 340.49,
    "distance_km": 1120.04,
    "latitude_deg": 1.14,
    "longitude_deg": 104.78
  },
  {
    "name": "STARLINK-4677",
    "altitude_deg": 1.26,
    "azimuth_deg": 211.09,
    "distance_km": 2557.21,
    "latitude_deg": -25.28,
    "longitude_deg": 95.44
  },
  {
    "name": "STARLINK-4660",
    "altitude_deg": 15.34,
    "azimuth_deg": 226.11,
    "distance_km": 1487.48,
    "latitude_deg": -15.13,
    "longitude_deg": 98.7
  },
  {
    "name": "STARLINK-4554",
    "altitude_deg": 11.17,
    "azimuth_deg": 11.69,
    "distance_km": 1712.14,
    "latitude_deg": 6.95,
    "longitude_deg": 110.44
  },
  {
    "name": "STARLINK-4595",
    "altitude_deg": -4.54,
    "azimuth_deg": 227.76,
    "distance_km": 3245.16,
    "latitude_deg": -24.8,
    "longitude_deg": 85.22
  },
  {
    "name": "STARLINK-4602",
    "altitude_deg": 21.76,
    "azimuth_deg": 255.62,
    "distance_km": 1214.1,
    "latitude_deg": -9.14,
    "longitude_deg": 98.4
  },
  {
    "name": "STARLINK-4594",
    "altitude_deg": -2.65,
    "azimuth_deg": 4.81,
    "distance_km": 2981.04,
    "latitude_deg": 18.67,
    "longitude_deg": 109.78
  },
  {
    "name": "STARLINK-4390",
    "altitude_deg": -3.63,
    "azimuth_deg": 292.01,
    "distance_km": 3179.24,
    "latitude_deg": 3.69,
    "longitude_deg": 82.49
  },
  {
    "name": "STARLINK-4630",
    "altitude_deg": -3.85,
    "azimuth_deg": 223.65,
    "distance_km": 3222.76,
    "latitude_deg": -26.13,
    "longitude_deg": 86.78
  },
  {
    "name": "STARLINK-4424",
    "altitude_deg": -0.34,
    "azimuth_deg": 245.13,
    "distance_km": 2796.31,
    "latitude_deg": -16.19,
    "longitude_deg": 85.26
  },
  {
    "name": "STARLINK-4626",
    "altitude_deg": -0.04,
    "azimuth_deg": 267.07,
    "distance_km": 2756.88,
    "latitude_deg": -7.5,
    "longitude_deg": 84.04
  },
  {
    "name": "STARLINK-4569",
    "altitude_deg": -0.25,
    "azimuth_deg": 270.21,
    "distance_km": 2779.93,
    "latitude_deg": -6.23,
    "longitude_deg": 83.86
  },
  {
    "name": "STARLINK-4572",
    "altitude_deg": -0.01,
    "azimuth_deg": 248.48,
    "distance_km": 2701.58,
    "latitude_deg": -14.68,
    "longitude_deg": 85.58
  },
  {
    "name": "STARLINK-4725",
    "altitude_deg": 7.63,
    "azimuth_deg": 210.81,
    "distance_km": 1975.1,
    "latitude_deg": -20.95,
    "longitude_deg": 98.68
  },
  {
    "name": "STARLINK-4711",
    "altitude_deg": 45.74,
    "azimuth_deg": 64.34,
    "distance_km": 729.85,
    "latitude_deg": -5.05,
    "longitude_deg": 111.42
  },
  {
    "name": "STARLINK-4714",
    "altitude_deg": -1.05,
    "azimuth_deg": 43.07,
    "distance_km": 2793.44,
    "latitude_deg": 10.65,
    "longitude_deg": 123.89
  },
  {
    "name": "STARLINK-4695",
    "altitude_deg": 11.14,
    "azimuth_deg": 85.23,
    "distance_km": 1721.2,
    "latitude_deg": -5.52,
    "longitude_deg": 121.74
  },
  {
    "name": "STARLINK-4644",
    "altitude_deg": 0.04,
    "azimuth_deg": 252.62,
    "distance_km": 2683.84,
    "latitude_deg": -13.08,
    "longitude_deg": 85.28
  },
  {
    "name": "STARLINK-4705",
    "altitude_deg": -3.61,
    "azimuth_deg": 199.37,
    "distance_km": 3128.53,
    "latitude_deg": -32.09,
    "longitude_deg": 97.45
  },